장소유형코드,대상시설명,시도명,시군구명,시군구코드,소재지도로명주소,소재지지번주소,위도,경도,제한속도,관리기관명,관리기관전화번호,관할경찰서명,CCTV설치여부,CCTV설치대수,보호구역도로폭,데이터기준일자,제공기관코드,제공기관명
1,온천2구마을경로당,충청북도,충주시,43130,충청북도 충주시 수안보면 물탕2길 24-5,충청북도 충주시 수안보면 온천리 249-17,36.8469257674,127.9921085,30,충청북도 충주시,043-850-6331,충주경찰서,N,0,,2020-02-29,4390000,충청북도 충주시
1,탑평마을경로당,충청북도,충주시,43130,충청북도 충주시 동량면 탑평새말길 6,충청북도 충주시 동량면 조동리 1237-1,37.02959778,127.9699304650,30,충청북도 충주시,043-850-6331,충주경찰서,N,0,,2020-02-29,4390000,충청북도 충주시
1,독동마을경로당,충청북도,충주시,43130,충청북도 충주시 산척면 지속골길47-30,충청북도 충주시 산척면 영덕리 402-2,37.06369303,127.9668519698,30,충청북도 충주시,043-850-6331,충주경찰서,N,0,,2020-02-29,4390000,충청북도 충주시
1,덕해마을경로당,충청북도,충주시,43130,충청북도 충주시 산척면 덕해길 80,충청북도 충주시 산척면 영덕리 589-3,37.07068877,127.9570636409,30,충청북도 충주시,043-850-6331,충주경찰서,N,0,,2020-02-29,4390000,충청북도 충주시
1,하율마을경로당,충청북도,충주시,43130,충청북도 충주시 앙성면 아랫밤나무1길 12,충청북도 충주시 앙성면 목미리 284-5,37.1410574352,127.7386667101,30,충청북도 충주시,043-850-6331,충주경찰서,N,0,,2020-02-29,4390000,충청북도 충주시
1,대사마을경로당,충청북도,충주시,43130,충청북도 충주시 수안보면 미륵송계로 169,충청북도 충주시 수안보면 사문리 318-7,36.8403716243,128.0233327876,30,충청북도 충주시,043-850-6331,충주경찰서,N,0,,2020-02-29,4390000,충청북도 충주시
1,공이2리경로당,충청북도,충주시,43130,충청북도 충주시 살미면 공이동길 550,충청북도 충주시 살미면 공이리 487-3,36.8793395801,128.0342971266,30,충청북도 충주시,043-850-6331,충주경찰서,N,0,,2020-02-29,4390000,충청북도 충주시
1,송정경노당,충청북도,충주시,43130,충청북도 충주시 산척면 윗말길 3-4,충청북도 충주시 산척면 송강리 1733-1,37.09344239,127.9614349555,30,충청북도 충주시,043-850-6331,충주경찰서,N,0,,2020-02-29,4390000,충청북도 충주시
02,장애인종합복지관,경기도,수원시,41110,경기도 수원시 영통구 창룡대로 255,경기도 수원시 영통구 이의동 1088-13,37.2955402,127.036022,60,경기도 수원시,031-228-2298,수원중부경찰서,Y,1,28,2019-10-30,3740000,경기도 수원시
01,신곡경로당,경기도,수원시,41110,경기도 수원시 권선구 경수대로191번길 14-4,경기도 수원시 권선구 세류동 1155-2,37.24456055,127.0166896,30,경기도 수원시,031-228-2298,수원남부경찰서,Y,5,6,2019-10-30,3740000,경기도 수원시
01,영통종합요양센터,경기도,수원시,41110,경기도 수원시 영통구 태장로 62,경기도 수원시 영통구 망포동 651-1,37.2389238,127.0530641,30,경기도 수원시,031-228-2298,수원남부경찰서,Y,8,18,2019-10-30,3740000,경기도 수원시
01,영통사랑요양원,경기도,수원시,41110,경기도 수원시 영통구 영통로 115,경기도 수원시 영통구 망포동 558,37.2379199903,127.0568529,60,경기도 수원시,031-228-2298,수원남부경찰서,N,,26,2019-10-30,3740000,경기도 수원시
01,파장동경로당,경기도,수원시,41110,경기도 수원시 장안구 파장천로 51,경기도 수원시 장안구 파장동 507-9,37.3099879929,126.9963316008,30,경기도 수원시,031-228-2298,수원중부경찰서,Y,5,8~10,2019-10-30,3740000,경기도 수원시
01,연무사회복지관,경기도,수원시,41110,경기도 수원시 장안구 창룡대로 151번길 8,경기도 수원시 장안구 연무동 260-34,37.2917732936,127.0266439,30,경기도 수원시,031-228-2298,수원중부경찰서,Y,4,7,2019-10-30,3740000,경기도 수원시
01,대한노인회수원시팔달구지회부설노인대학,경기도,수원시,41110,경기도 수원시 팔달구 수성로 182번길 85,경기도 수원시 팔달구 화서동 277-2,37.2833733,126.9943678,30,경기도 수원시,031-228-2298,수원중부경찰서,N,,10~14,2019-10-30,3740000,경기도 수원시
01,대한노인회수원시장안구지회부설노인대학,경기도,수원시,41110,경기도 수원시 장안구 수성로 340번길 30,경기도 수원시 장안구 영화동 352,37.2913253641,127.0099243348,30,경기도 수원시,031-228-2298,수원중부경찰서,N,,6~7,2019-10-30,3740000,경기도 수원시
01,중앙요양원,경기도,수원시,41110,경기도 수원시 권선구 서수원로53번길 25-43,경기도 수원시 권선구 오목천동 1169,37.2317289736,126.9790536087,30,경기도 수원시,031-228-2298,수원서부경찰서,N,,19,2019-10-30,3740000,경기도 수원시
01,노인복지시설감천장,경기도,수원시,41110,경기도 수원시 장안구 광교산로 22,경기도 수원시 장안구 영화동 33-1,37.2932773352,127.0211799799,30,경기도 수원시,031-228-2298,수원중부경찰서,N,,11,2019-10-30,3740000,경기도 수원시
01,밤밭노인복지관,경기도,수원시,41110,경기도 수원시 장안구 상률로 53,경기도 수원시 장안구 율전동 40-1,37.30638423,126.9721071,60,경기도 수원시,031-228-2298,수원중부경찰서,N,,10~35,2019-10-30,3740000,경기도 수원시
01,대한노인회영통구지회,경기도,수원시,41110,경기도 수원시 영통구 영통로 396,경기도 수원시 영통구 영통동 961-18,37.2568735,127.0697092377,30,경기도 수원시,031-228-2298,수원남부경찰서,N,,16,2019-10-30,3740000,경기도 수원시
01,광교노인복지관,경기도,수원시,41110,경기도 수원시 영통구 센트럴타운로 22,경기도 수원시 영통구 이의동 1328-1,37.28969032,127.0567254,30,경기도 수원시,031-228-2298,수원남부경찰서,Y,1,17,2019-10-30,3740000,경기도 수원시
01,연세실버벨리,경기도,수원시,41110,경기도 수원시 권선구 곡반정로 92,경기도 수원시 권선구 곡반정동 298-1,37.23631507,127.0303509,30,경기도 수원시,031-228-2298,수원남부경찰서,Y,4,6,2019-10-30,3740000,경기도 수원시
01,아녜스의 집,경기도,수원시,41110,경기도 수원시 장안구 서부로 2162-12,경기도 수원시 장안구 천천동 575-1,37.300769,126.974053,30,경기도 수원시,031-228-2298,수원중부경찰서,N,,7,2019-10-30,3740000,경기도 수원시
01,수원VIP 실버케어,경기도,수원시,41110,경기도 수원시 팔달구 팔달로 24,경기도 수원시 팔달구 고등동 235-4,37.2709068,127.0010732,60,경기도 수원시,031-228-2298,수원서부경찰서,Y,3,18,2019-10-30,3740000,경기도 수원시
01,유당마을,경기도,수원시,41110,경기도 수원시 장안구 수일로191번길 26,경기도 수원시 장안구 조원동 119-3,37.3096451256,127.01120819,30,경기도 수원시,031-228-2298,수원중부경찰서,N,,5~16,2019-10-30,3740000,경기도 수원시
01,수원시립노인전문요양원,경기도,수원시,41110,경기도 수원시 장안구 수일로 33,경기도 수원시 장안구 파장동 199-2,37.3126550166,126.9952169244,30,경기도 수원시,031-228-2298,수원중부경찰서,N,,9,2019-10-30,3740000,경기도 수원시
01,서호노인복지관,경기도,수원시,41110,경기도 수원시 권선구 구운로4번길 34,경기도 수원시 권선구 구운동 501,37.27849619,126.9761901,60,경기도 수원시,031-228-2298,수원서부경찰서,Y,9,35,2019-10-30,3740000,경기도 수원시
01,SK청솔노인복지관,경기도,수원시,41110,경기도 수원시 장안구 장안로 174,경기도 수원시 장안구 정자동 286,37.2990242152,126.9973968523,60,경기도 수원시,031-228-2298,수원중부경찰서,Y,4,18~36,2019-10-30,3740000,경기도 수원시
01,버드내노인복지관,경기도,수원시,41110,경기도 수원시 권선구 권선로564번길 36,경기도 수원시 권선구 세류동 483,37.261102,127.0120757977,30,경기도 수원시,031-228-2298,수원서부경찰서,Y,5,8,2019-10-30,3740000,경기도 수원시
01,수원보훈요양원,경기도,수원시,41110,경기도 수원시 장안구 광교산로 95,경기도 수원시 장안구 하광교동 428,37.2983708,127.0258778378,30,경기도 수원시,031-228-2298,수원중부경찰서,N,,25,2019-10-30,3740000,경기도 수원시
01,경상감영공원,대구광역시,중구,34100,대구광역시 중구 경상감영길 99,대구광역시 중구 포정동 21,35.8722155,128.5922224,30,대구광역시 중구청,053-661-3175,대구광역시 중부경찰서,Y,1,6~10,2019-06-01,3410000,대구광역시 중구
01,달성공원,대구광역시,중구,34100,대구광역시 중구 달성공원로 35,대구광역시 중구 달성동 294-3,35.8736642,128.5777306,30,대구광역시 중구청,053-661-3175,대구광역시 중부경찰서,Y,2,15~20,2019-06-01,3410000,대구광역시 중구
01,지암 경로당,충청남도,금산군,44710,충청남도 금산군 남이면 느티골길 16,,36.0804415,127.3693205,30,충청남도 금산군,041-750-2714,금산경찰서,N,0,,2019-06-14,6440000,충청남도
01,미성요양원,서울특별시,관악구,11620,서울특별시 관악구 난곡로63가길 42,서울특별시 관악구 신림동 1480-5,37.4791462,126.9141945,30,서울특별시 관악구청,02-879-6862,서울관악경찰서,Y,1,6~7,2019-04-30,3200000,서울특별시 관악구
01,관악구민종합체육센터,서울특별시,관악구,11620,서울특별시 관악구 낙성대로3길 37,서울특별시 관악구 봉천동 223-9,37.4730140,126.9603062,30,서울특별시 관악구청,02-879-6862,서울관악경찰서,Y,1,10~30,2019-04-30,3200000,서울특별시 관악구
01,관악시니어클럽,서울특별시,관악구,11620,서울특별시 관악구 남부순환로247다길 60,서울특별시 관악구 봉천동 148-145,37.4786268,126.964194,30,서울특별시 관악구청,02-879-6862,서울관악경찰서,Y,1,6,2019-04-30,3200000,서울특별시 관악구
01,백설경로당,서울특별시,관악구,11620,서울특별시 관악구 관악로6길 50,서울특별시 관악구 봉천동 1606-11,37.476237,126.9534973,30,서울특별시 관악구청,02-879-6862,서울관악경찰서,Y,1,6,2019-04-30,3200000,서울특별시 관악구
01,덕진경로당,서울특별시,관악구,11620,서울특별시 관악구 남부순환로234길 37,서울특별시 관악구 봉천동 1621-23,37.477691,126.9568105,30,서울특별시 관악구청,02-879-6862,서울관악경찰서,Y,1,6,2019-04-30,3200000,서울특별시 관악구
01,동명노인복지관,서울특별시,관악구,11620,서울특별시 관악구 봉천로23라길 15,서울특별시 관악구 봉천동 647-10,37.488269,126.9371615,30,서울특별시 관악구청,02-879-6862,서울관악경찰서,Y,2,6,2019-04-30,3200000,서울특별시 관악구
01,흥산1리 노인회관,충청남도,청양군,44790,충청남도 청양군 남양면 거북미길 40,충청남도 청양군 남양면 흥산리 95-5,36.381074,126.758364,30,충청남도 청양군,041-940-2983,청양경찰서,N,,6.5,2019-09-04,4590000,충청남도 청양군
01,신왕1리 노인회관,충청남도,청양군,44790,충청남도 청양군 남양면 구봉로 571-1,충청남도 청양군 남양면 신왕리 163-3,36.402743,126.749323,30,충청남도 청양군,041-940-2983,청양경찰서,N,,6.5,2019-09-04,4590000,충청남도 청양군
01,봉암2리 노인회관,충청남도,청양군,44790,충청남도 청양군 남양면 조고실길 43,충청남도 청양군 남양면 백금리 66-3,36.418890,126.768122,30,충청남도 청양군,041-940-2983,청양경찰서,N,,6.5,2019-09-04,4590000,충청남도 청양군
01,백금1리 노인회관,충청남도,청양군,44790,충청남도 청양군 남양면 도토실길 19-20,충청남도 청양군 남양면 백금리 66-3,36.398477,126.745225,30,충청남도 청양군,041-940-2983,청양경찰서,N,,6.5,2019-09-04,4590000,충청남도 청양군
01,군량리 노인회관,충청남도,청양군,44790,충청남도 청양군 청양읍 식물원길 577,충청남도 청양군 청양읍 군량리 125-4,36.443830,126.781061,30,충청남도 청양군,041-940-2983,청양경찰서,N,,6.5,2019-09-04,4590000,충청남도 청양군
01,중묵리 노인회관,충청남도,청양군,44790,충청남도 청양군 비봉면 중묵운곡로 39,충청남도 청양군 비봉면 중묵리 547-2,36.489887,126.793888,30,충청남도 청양군,041-940-2983,청양경찰서,N,,6.5,2019-09-04,4590000,충청남도 청양군
01,지천리 노인회관,충청남도,청양군,44790,충청남도 청양군 장평면 지천로 1241-6,충청남도 청양군 장평면 지천리 162-2,36.388236,126.860528,30,충청남도 청양군,041-940-2983,청양경찰서,Y,1,6.5,2019-09-04,4590000,충청남도 청양군
01,해남리 노인회관,충청남도,청양군,44790,충청남도 청양군 정산면 충의로 1719-6,충청남도 청양군 정산면 해남리 236-6,36.438469,126.955168,30,충청남도 청양군,041-940-2983,청양경찰서,N,,6.5,2019-09-04,4590000,충청남도 청양군
01,역촌1리 노인회관,충청남도,청양군,44790,충청남도 청양군 정산면 애티길 79,충청남도 청양군 정산면 역촌리 537-5,36.414933,126.954417,30,충청남도 청양군,041-940-2983,청양경찰서,N,,6.5,2019-09-04,4590000,충청남도 청양군
01,이화리 노인회관,충청남도,청양군,44790,충청남도 청양군 대치면 광승길 11,충청남도 청양군 대치면 이화리 169,36.466364,126.879182,30,충청남도 청양군,041-940-2983,청양경찰서,N,,6.5~12,2019-09-04,4590000,충청남도 청양군
01,광금리 노인회관,충청남도,청양군,44790,충청남도 청양군 대치면 까치내로 1256,충청남도 청양군 대치면 광금리 232-4,36.423184,126.829577,30,충청남도 청양군,041-940-2983,청양경찰서,N,,6.5,2019-09-04,4590000,충청남도 청양군
01,광금리1반 노인회관,충청남도,청양군,44790,충청남도 청양군 대치면 까치내로 1257,충청남도 청양군 대치면 광금리 226-3,36.423370,126.829316,30,충청남도 청양군,041-940-2983,청양경찰서,N,,6.5,2019-09-04,4590000,충청남도 청양군
01,수석리 노인회관,충청남도,청양군,44790,충청남도 청양군 대치면 청산로420,충청남도 청양군 대치면 수석리 350-1,36.470199,126.828736,30,충청남도 청양군,041-940-2983,청양경찰서,N,,6.5,2019-09-04,4590000,충청남도 청양군
01,마치1리 경로당,충청남도,청양군,44790,충청남도 청양군 정산면 마치길185,충청남도 청양군 정산면 마치리 153,36.438252,126.914694,30,충청남도 청양군,041-940-2983,청양경찰서,N,,8,2019-09-04,4590000,충청남도 청양군
01,구룡3리 경로당,충청남도,청양군,44790,충청남도 청양군 남양면 구용길477,충청남도 청양군 남양면 구룡리 318-29,36.407488,126.762828,30,충청남도 청양군,041-940-2983,청양경찰서,Y,1,8,2019-09-04,4590000,충청남도 청양군
01,정좌1리 경로당,충청남도,청양군,44790,충청남도 청양군 청양읍 갓골길15-4,충청남도 청양군 청양읍 정좌리 275-3,36.429059,126.784456,30,충청남도 청양군,041-940-2983,청양경찰서,N,,8,2019-09-04,4590000,충청남도 청양군
01,와촌리 경로당,충청남도,청양군,44790,충청남도 청양군 정산면 새울길321-15,충청남도 청양군 정산면 와촌리 148-1,36.393386,126.928460,30,충청남도 청양군,041-940-2983,청양경찰서,N,,6.5,2019-09-04,4590000,충청남도 청양군
01,작천리 경로당,충청남도,청양군,44790,충청남도 청양군 대치면 까치내로 689,충청남도 청양군 대치면 작천리 54-1,36.394053,126.860490,30,충청남도 청양군,041-940-2983,청양경찰서,N,,13,2019-09-04,4590000,충청남도 청양군
01,구룡1리 경로당,충청남도,청양군,44790,충청남도 청양군 남양면 구용길 394-7,충청남도 청양군 남양면 구룡리 157,36.404179,126.770762,30,충청남도 청양군,041-940-2983,청양경찰서,Y,1,8.5,2019-09-04,4590000,충청남도 청양군
01,흥산2리 경로당,충청남도,청양군,44790,충청남도 청양군 남양면 만수로 1237,충청남도 청양군 남양면 흥산리 289-18,36.376320,126.750863,30,충청남도 청양군,041-940-2983,청양경찰서,N,,8,2019-09-04,4590000,충청남도 청양군
01,금정1리 경로당,충청남도,청양군,44790,충청남도 청양군 남양면 만수로 1832,충청남도 청양군 남양면 금정리 356-2,36.411659,126.796233,30,충청남도 청양군,041-940-2983,청양경찰서,Y,1,8.5,2019-09-04,4590000,충청남도 청양군
01,강정리 경로당,충청남도,청양군,44790,충청남도 청양군 비봉면 록평용당로 680-1,충청남도 청양군 비봉면 강정리 277-5,36.514377,126.776146,30,충청남도 청양군,041-940-2983,청양경찰서,Y,1,8,2019-09-04,4590000,충청남도 청양군
01,낙지리 경로당,충청남도,청양군,44790,충청남도 청양군 장평면 까치내로 310-7,충청남도 청양군 장평면 락지리 263-1,36.365985,126.882513,30,충청남도 청양군,041-940-2983,청양경찰서,Y,1,8.5,2019-09-04,4590000,충청남도 청양군
01,대봉1리 경로당,충청남도,청양군,44790,충청남도 청양군 남양면 구용길 240,충청남도 청양군 남양면 대봉리 197-2,36.397774,126.783961,30,충청남도 청양군,041-940-2983,청양경찰서,Y,1,8.5,2019-09-04,4590000,충청남도 청양군
01,금정2리 경로당,충청남도,청양군,44790,충청남도 청양군 남양면 만수로 1888,충청남도 청양군 남양면 금정리 66-1,36.415482,126.800399,30,충청남도 청양군,041-940-2983,청양경찰서,Y,1,8.5,2019-09-04,4590000,충청남도 청양군
1,오륜마을,경상남도,통영시,48220,경상남도 통영시 도산면 도산일주로 252,경상남도 통영시 도산면 오륜리 290,34.90367029,128.3432119,30,경상남도 통영시,055-650-2333,광도지구대,N,0,6,2020-02-18,5330000,경상남도 통영시
02,수봉재활원,경기도,수원시,41110,경기도 수원시 권선구 수봉로 43,경기도 수원시 권선구 탑동 516-1,37.2649167,126.9771594405,30,경기도 수원시,031-228-2298,수원서부경찰서,Y,2,7~8,2019-10-30,3740000,경기도 수원시
02,오목천동 장애인 주간보호시설,경기도,수원시,41110,경기도 수원시 권선구 서수원로 124,경기도 수원시 권선구 오목천동 197,37.2388249,126.9722491,30,경기도 수원시,031-228-2298,수원서부경찰서,N,,15,2019-10-30,3740000,경기도 수원시
02,호매실장애인종합복지관,경기도,수원시,41110,경기도 수원시 권선구 호매실로 211,경기도 수원시 권선구 호매실동 1385,37.2631693634,126.9566873924,60,경기도 수원시,031-228-2298,수원서부경찰서,Y,1,22,2019-10-30,3740000,경기도 수원시
1,산후2리 다목적회관,충청남도,태안군,44825,충청남도 태안군 태안읍 진벌로 114,충청남도 태안군 태안읍 산후리 712-8,36.7811638406,126.2891240112,30,태안군,041-670-2719,태안경찰서,N,,3,2020-02-07,4620000,충청남도 태안군
1,정당1리 다목적회관,충청남도,태안군,44825,충청남도 태안군 안면읍 안면대로 2565,충청남도 태안군 안면읍 정당리 657-3,36.5405377162,126.3564214121,30,태안군,041-670-2719,태안경찰서,N,,3,2020-02-07,4620000,충청남도 태안군
1,신두2리 다목적회관,충청남도,태안군,44825,충청남도 태안군 원북면 신두로 324-1,충청남도 태안군 원북면 신두리 431-4,36.8316460856,126.2134859790,30,태안군,041-670-2719,태안경찰서,N,,3,2020-02-07,4620000,충청남도 태안군
1,산후1리 다목적회관,충청남도,태안군,44825,충청남도 태안군 태안읍 밤나무길 390,충청남도 태안군 태안읍 산후리 404,36.7909469685,126.2965725,30,태안군,041-670-2719,태안경찰서,N,,3,2020-02-07,4620000,충청남도 태안군
1,어은1리 경로당,충청남도,태안군,44825,충청남도 태안군 태안읍 진벌로 527,충청남도 태안군 태안읍 어은리 229-5,36.8006254102,126.3227386369,30,태안군,041-670-2719,태안경찰서,N,,3,2020-02-07,4620000,충청남도 태안군
1,삭선5리 부경파크빌 경로당,충청남도,태안군,44825,충청남도 태안군 태안읍 원이로 302,충청남도 태안군 태안읍 삭선리 281-5,36.7835498472,126.2771466048,30,태안군,041-670-2719,태안경찰서,N,,3,2020-02-07,4620000,충청남도 태안군
1,삭선2리 다목적회관,충청남도,태안군,44825,충청남도 태안군 태안읍 진벌로 11,충청남도 태안군 태안읍 삭선리 684-9,36.7737200108,126.2823765,30,태안군,041-670-2719,태안경찰서,N,,3,2020-02-07,4620000,충청남도 태안군
1,반계3리 마을회관,충청남도,태안군,44825,충청남도 태안군 원북면 옥파로 194,충청남도 태안군 원북면 반계리 277-17,36.8315058105,126.2429594497,30,태안군,041-670-2719,태안경찰서,N,,3,2020-02-07,4620000,충청남도 태안군
1,방갈1리 마을회관,충청남도,태안군,44825,충청남도 태안군 원북면 방갈리 182-4,충청남도 태안군 원북면 방갈리 182-4,36.8800308855,126.2157268889,30,태안군,041-670-2719,태안경찰서,N,,3,2020-02-07,4620000,충청남도 태안군
1,"이곡1, 2리 경로당",충청남도,태안군,44825,충청남도 태안군 원북면 샛말길 148,충청남도 태안군 원북면 이곡리 771-4,36.8518152056,126.2360556,30,태안군,041-670-2719,태안경찰서,N,,3,2020-02-07,4620000,충청남도 태안군
1,안기1리 경로당,충청남도,태안군,44825,충청남도 태안군 근흥면 근흥로 436,충청남도 태안군 근흥면 안기리 874-3,36.7361586,126.2411830897,30,태안군,041-670-2719,태안경찰서,N,,3,2020-02-07,4620000,충청남도 태안군
1,장산1리 경로당,충청남도,태안군,44825,충청남도 태안군 태안읍 장산리 590,충청남도 태안군 태안읍 근흥로 7,36.7988275,126.2564222,30,태안군,041-670-2719,태안경찰서,N,,3,2020-02-07,4620000,충청남도 태안군
1,대기2리 경로당,충청남도,태안군,44825,충청남도 태안군 원북면 대기길 18-1,충청남도 태안군 원북면 대기리 25-3,36.7988275,126.2564222,30,태안군,041-670-2719,태안경찰서,N,,3,2020-02-07,4620000,충청남도 태안군
1,태안 노인복지회관,충청남도,태안군,44825,충청남도 태안군 태안읍 후곡로 79,충청남도 태안군 태안읍 남문리 712-13,36.745990767,126.30167134,30,태안군,041-670-2719,태안경찰서,N,,3,2020-02-07,4620000,충청남도 태안군
1,삭선4리 경로당,충청남도,태안군,44825,충청남도 태안군 태안읍 원이로 372-6,충청남도 태안군 태안읍 삭선리 256-31,36.7867050971,126.2726564,30,태안군,041-670-2719,태안경찰서,N,,3,2020-02-07,4620000,충청남도 태안군
01,나주시중부노인복지회관,전라남도,나주시,46170,전라남도 나주시 금성길 74,전라남도 나주시 성북동 66-1,35.0354730235,126.717422,30,전라남도 나주시,061-339-8834,나주경찰서,Y,2,,2019-07-01,4830000,전라남도 나주시
01,노인복지회관,전라남도,나주시,46170,전라남도 나주시 예향로 3874,전라남도 나주시 영산동 142,34.9999759179,126.7139480940,60,전라남도 나주시,061-339-8834,나주경찰서,N,,,2019-07-01,4830000,전라남도 나주시
01,청양군 노인복지관,충청남도,청양군,44790,충청남도 청양군 청양읍 칠갑산로2길 4,충청남도 청양군 청양읍 읍내리 188-5,36.450948,126.800135,30,충청남도 청양군,041-940-2983,청양경찰서,Y,5,14,2019-09-04,4590000,충청남도 청양군
01,청양군 노인요양원,충청남도,청양군,44790,충청남도 청양군 운곡면 청신로 1341-4,충청남도 청양군 운곡면 광암리 633-2,36.565002,126.854474,30,충청남도 청양군,041-940-2983,청양경찰서,N,,8.5,2019-09-04,4590000,충청남도 청양군
01,방한1리 경로당,충청남도,청양군,44790,충청남도 청양군 비봉면 작은한술길 31-1,충청남도 청양군 비봉면 방한리 147-4,36.475884,126.751176,30,충청남도 청양군,041-940-2983,청양경찰서,Y,1,6.5,2019-09-04,4590000,충청남도 청양군
01,북상경로당,충청남도,청양군,44790,충청남도 청양군 운곡면 청신로 583,충청남도 청양군 운곡면 효제리 10-4,36.499159,126.833377,30,충청남도 청양군,041-940-2983,청양경찰서,N,,6.5,2019-09-04,4590000,충청남도 청양군
01,내초리노인회관,충청남도,청양군,44790,충청남도 청양군 정산면 새울길 206-4,충청남도 청양군 정산면 내초리 79,36.396380,126.917439,30,충청남도 청양군,041-940-2983,청양경찰서,Y,1,6.5,2019-09-04,4590000,충청남도 청양군
01,신덕리 노인회관,충청남도,청양군,44790,충청남도 청양군 정산면 신덕길 233-34,충청남도 청양군 정산면 신덕리 195-1,36.399145,126.931852,30,충청남도 청양군,041-940-2983,청양경찰서,N,,6.5,2019-09-04,4590000,충청남도 청양군
01,신왕2리 노인회관,충청남도,청양군,44790,충청남도 청양군 남양면 구봉로 340,충청남도 청양군 남양면 신왕리 716-6,36.408485,126.731495,30,충청남도 청양군,041-940-2983,청양경찰서,Y,1,6.5,2019-09-04,4590000,충청남도 청양군
01,화강리 노인회관,충청남도,청양군,44790,충청남도 청양군 화성면 멀뫼통골길 107,충청남도 청양군 화성면 화강리 197-5,36.429966,126.704124,30,충청남도 청양군,041-940-2983,청양경찰서,N,,6.5,2019-09-04,4590000,충청남도 청양군
01,잔다리 노인회관,충청남도,청양군,44790,충청남도 청양군 화성면 잔다리길 32,충청남도 청양군 화성면 장계리 330-3,36.419899,126.711371,30,충청남도 청양군,041-940-2983,청양경찰서,N,,6.5,2019-09-04,4590000,충청남도 청양군
01,오룡리 노인회관,충청남도,청양군,44790,충청남도 청양군 대치면 광산로 286,충청남도 청양군 대치면 오룡리 111-1,36.451179,126.879241,30,충청남도 청양군,041-940-2983,청양경찰서,N,,6.5,2019-09-04,4590000,충청남도 청양군
01,송곡 경로당,충청남도,청양군,44790,충청남도 청양군 대치면 가파로 157,충청남도 청양군 대치면 농소리 198-6,36.483288,126.850338,30,충청남도 청양군,041-940-2983,청양경찰서,N,,6.5,2019-09-04,4590000,충청남도 청양군
01,구룡리 노인회관,충청남도,청양군,44790,충청남도 청양군 장평면 항촌길 85,충청남도 청양군 장평면 구룡리 143-4,36.332114,126.864389,30,충청남도 청양군,041-940-2983,청양경찰서,N,,6.5,2019-09-04,4590000,충청남도 청양군
1,정릉실버복지센터,서울특별시,성북구,11290,서울특별시 성북구 솔샘로 8 (정릉동),서울특별시 성북구 정릉동 674-4,37.6082106,127.0046445,30,서울특별시 성북구청,02-2241-3462,서울특별시 성북경찰서,N,0,5~15,2020-02-19,3070000,서울특별시 성북구
1,상월곡실버복지센터,서울특별시,성북구,11290,서울특별시 성북구 화랑로18길 6 (상월곡동),서울특별시 성북구 상월곡동 97-22,37.60585269,127.0482353,30,서울특별시 성북구청,02-2241-3462,서울특별시 종암경찰서,Y,1,5~30,2020-02-19,3070000,서울특별시 성북구
1,성북노인종합복지관,서울특별시,성북구,11290,서울특별시 성북구 종암로15길 10 (종암동),서울특별시 성북구 종암동 66-14,37.5977918683,127.0344116,30,서울특별시 성북구청,02-2241-3462,서울특별시 종암경찰서,Y,1,6,2020-02-19,3070000,서울특별시 성북구
02,호세아동산,경기도,남양주시,41360,경기도 남양주시 수동면 소래비로 470-19,경기도 남양주시 수동면 송천리 452-1,37.6878010786,127.327462,30,남양주시청,031-590-2438,남양주경찰서,N,0,8,2020-01-29,3990000,경기도 남양주시
02,신망애재활원,경기도,남양주시,41360,경기도 남양주시 수동면 비룡로972번길 17,경기도 남양주시 수동면 입석리 522-2,37.7202177986,127.3142962885,30,남양주시청,031-590-2438,남양주경찰서,N,0,4,2020-01-29,3990000,경기도 남양주시
01,팔야1리 경로당,경기도,남양주시,41360,경기도 남양주시 진접읍 팔야로 130,경기도 남양주시 진접읍 팔야리 330-2,37.749959,127.222674,30,남양주시청,031-590-2438,남양주경찰서,Y,1,10,2020-01-29,3990000,경기도 남양주시
01,남양주시 보훈요양원,경기도,남양주시,41360,경기도 남양주시 덕송2로 71,경기도 남양주시 별내동 819,37.6692873359,127.1175987265,30,남양주시청,031-590-2438,남양주경찰서,Y,1,35,2020-01-29,3990000,경기도 남양주시
01,남양주시노인복지관분관 행복공간,경기도,남양주시,41360,경기도 남양주시 진접읍 해밀예당1로236번길 23,경기도 남양주시 진접읍 금곡리 1118,37.718959,127.205074,30,남양주시청,031-590-2438,남양주경찰서,N,0,12,2020-01-29,3990000,경기도 남양주시
01,물골안어르신학교,경기도,남양주시,41360,경기도 남양주시 수동면 지둔로 7-2,경기도 남양주시 수동면 운수리 95-39,37.704698,127.3247858152,30,남양주시청,031-590-2438,남양주경찰서,Y,1,6,2020-01-29,3990000,경기도 남양주시
01,남양주시노인복지관 본관,경기도,남양주시,41360,경기도 남양주시 진건읍 진건오남로 359,경기도 남양주시 진건읍 송능리 109-17,37.6732998908,127.197468,50,남양주시청,031-590-2438,남양주경찰서,Y,1,22,2020-01-29,3990000,경기도 남양주시
01,동부노인복지회관,경기도,남양주시,41360,경기도 남양주시 수동면 비룡로 801-47,경기도 남양주시 수동면 운수리 361,37.7097029662,127.3205119463,30,남양주시청,031-590-2438,남양주경찰서,Y,2,6,2020-01-29,3990000,경기도 남양주시
01,메낙골공원,서울특별시,영등포구,11560,서울특별시 영등포구 신길1동 4934-4,서울특별시 영등포구 신길1동 4934-4,37.506849,126.915255,30,서울특별시 영등포구,02-2670-3874,영등포경찰서,N,0,6,2019-09-04,3180000,서울특별시 영등포구
01,영등포공원,서울특별시,영등포구,11560,서울특별시 영등포구 신길로 275,서울특별시 영등포구 영등포동 582-3,37.5157786,126.9122002,30,서울특별시 영등포구,02-2670-3874,영등포경찰서,N,0,5,2019-09-04,3180000,서울특별시 영등포구
01,영등포구노인복지회관,서울특별시,영등포구,11560,서울특별시 영등포구 당산로 123,서울특별시 영등포구 당산동3가 385-1,37.5261469,126.8961748,30,서울특별시 영등포구,02-2670-3874,영등포경찰서,Y,3,6,2019-09-04,3180000,서울특별시 영등포구
01,삼농실버마을,서울특별시,구로구,11530,서울특별시 구로구 오류로8길 84,,37.4923752854,126.8447573542,30,서울특별시 구로구,02-860-3206,구로경찰서,Y,,3~5m,2019-09-23,3160000,서울특별시 구로구
01,구로노인종합복지관,서울특별시,구로구,11530,서울특별시 구로구 새말로16길 7,,37.5052425535,126.8906166112,30,서울특별시 구로구,02-860-3206,구로경찰서,Y,,13~15m,2019-09-23,3160000,서울특별시 구로구
1,순창군장애인노인종합복지관,전라북도,순창군,47700,전라북도 순창군 순창읍 순창5길 11-4,전라북도 순창군 순창읍 남계리 626,35.3730097874,127.1409587136,30,전라북도 순창군,063-650-1283,순창경찰서,Y,1,4,2020-01-09,4770000,전라북도 순창군
1,내3리 경로당,충청남도,태안군,44825,충청남도 태안군 이원면 원이로 2394,충청남도 태안군 이원면 내리 665-30,36.9327125,126.3033679,30,태안군,041-670-2719,태안경찰서,N,,3,2020-02-07,4620000,충청남도 태안군
1,황촌2리 경로당,충청남도,태안군,44825,충청남도 태안군 원북면 옥파로 944,충청남도 태안군 원북면 황촌리 660-3,36.8796950084,126.2037124,30,태안군,041-670-2719,태안경찰서,N,,3,2020-02-07,4620000,충청남도 태안군
1,마산2리 경로당,충청남도,태안군,44825,충청남도 태안군 원북면 마산길 174,충청남도 태안군 원북면 마산리 559-3,36.8286549,126.2666297908,30,태안군,041-670-2719,태안경찰서,N,,3,2020-02-07,4620000,충청남도 태안군
1,창기2리 경로당,충청남도,태안군,44825,충청남도 태안군 안면읍 황도로 193,충청남도 태안군 안면읍 창기리 220-109,36.5902608160,126.3429415,30,태안군,041-670-2719,태안경찰서,N,,3,2020-02-07,4620000,충청남도 태안군
1,도내1리 경로당,충청남도,태안군,44825,충청남도 태안군 태안읍 상도로 474,충청남도 태안군 태안읍 도내리 649-1,36.790415382,126.33767103,30,태안군,041-670-2719,태안경찰서,N,,3,2020-02-07,4620000,충청남도 태안군
1,남문2리 경로당,충청남도,태안군,44825,충청남도 태안군 태안읍 백화로 27,충청남도 태안군 태안읍 남문리 352-7,36.7580039,126.2936158,30,태안군,041-670-2719,태안경찰서,N,,3,2020-02-07,4620000,충청남도 태안군
1,당산4리 경로당,충청남도,태안군,44825,충청남도 태안군 이원면 사관로 524,충청남도 태안군 이원면 당산리 104,36.8862373,126.3151287,30,태안군,041-670-2719,태안경찰서,N,,3,2020-02-07,4620000,충청남도 태안군
1,당산1리 경로당,충청남도,태안군,44825,충청남도 태안군 이원면 원이로 1678-1,충청남도 태안군 이원면 당산리 1010-7,36.8794236561,126.2881739023,30,태안군,041-670-2719,태안경찰서,N,,3,2020-02-07,4620000,충청남도 태안군
1,정당2리 경로당,충청남도,태안군,44825,충청남도 태안군 안면읍 여수해길 6,충청남도 태안군 안면읍 정당리 394-3,36.545149802,126.35610175,30,태안군,041-670-2719,태안경찰서,N,,3,2020-02-07,4620000,충청남도 태안군
1,원용 경로당,충청남도,태안군,44825,충청남도 태안군 근흥면 용도로 410,충청남도 태안군 근흥면 용신리 686-4,36.7046530152,126.2277725709,30,태안군,041-670-2719,태안경찰서,N,,3,2020-02-07,4620000,충청남도 태안군
1,삼호그린 삭선6리 경로당,충청남도,태안군,44825,충청남도 태안군 태안읍 백교길 51,충청남도 태안군 태안읍 삭선리 763-9,36.7766182365,126.2764533,30,태안군,041-670-2719,태안경찰서,N,,3,2020-02-07,4620000,충청남도 태안군
01,한빛노인전문 요양원,광주광역시,광산구,29200,광주광역시 광산구 대산로 19-11,광주광역시 광산구 대산동 177,35.136117,126.672927,30,광주광역시 광산구,062-960-8633,광주광산경찰서,N,0,6,2019-03-04,3630000,광주광역시 광산구
01,송정 게이트볼경기장,광주광역시,광산구,29200,광주광역시 광산구 용보로 11,광주광역시 광산구 송정동 554-1,35.137239,126.800611,30,광주광역시 광산구,062-960-8633,광주광산경찰서,Y,1,6,2019-03-04,3630000,광주광역시 광산구
01,운남대교 게이트볼장,광주광역시,광산구,29200,광주광역시 광산구 풍영철길로 113,광주광역시 광산구 운남동 517-25,35.1648769,126.8149937,30,광주광역시 광산구,062-960-8633,광주광산경찰서,N,0,5,2019-03-04,3630000,광주광역시 광산구
01,송산유원지,광주광역시,광산구,29200,광주광역시 광산구 박호등임로 43-1,광주광역시 광산구 박호동 576,35.1586706306,126.736143681,30,광주광역시 광산구,062-960-8633,광주광산경찰서,Y,1,8,2019-03-04,3630000,광주광역시 광산구
01,응암공원,광주광역시,광산구,29200,광주광역시 광산구 임방울대로 673-12,광주광역시 광산구 월계동 760-1,35.216792,126.832239,30,광주광역시 광산구,062-960-8633,광주광산경찰서,N,0,12,2019-03-04,3630000,광주광역시 광산구
01,첨단전천후게이트볼장,광주광역시,광산구,29200,광주광역시 광산구 첨단강변로 76,광주광역시 광산구 산월동 819-8,35.2131607,126.852796,50,광주광역시 광산구,062-960-8633,광주광산경찰서,N,0,18,2019-03-04,3630000,광주광역시 광산구
01,송정권노인복지관,광주광역시,광산구,29200,광주광역시 광산구 송정로 52번길 20,광주광역시 광산구 도산동 925-1,35.134752,126.795357,30,광주광역시 광산구,062-960-8633,광주광산경찰서,N,0,14,2019-03-04,3630000,광주광역시 광산구
01,광주 보훈요양원,광주광역시,광산구,29200,광주광역시 광산구 첨단월봉로 85,광주광역시 광산구 산월동 887-2,35.207089,126.847755,50,광주광역시 광산구,062-960-8633,광주광산경찰서,N,0,18,2019-03-04,3630000,광주광역시 광산구
01,광산구 더불어락 노인복지관,광주광역시,광산구,29200,광주광역시 광산구 목련로 156,광주광역시 광산구 운남동 799-1,35.1706806,126.8164206,30,광주광역시 광산구,062-960-8633,광주광산경찰서,N,0,18,2019-03-04,3630000,광주광역시 광산구
01,화동 이소1리 노인회관,경상북도,상주시,47250,경상북도 상주시 화동면 이소3길 11,경상북도 상주시 이소리 427-1,36.38796525,127.9500985,30,경상북도 상주시,054-537-7548,상주경찰서,N,,6,2019-05-27,5110000,경상북도 상주시
01,외서 가곡 노인회관,경상북도,상주시,47250,경상북도 상주시 외서면 가곡4길 34,경상북도 상주시 가곡리 612-7,36.48405084,128.0924587,30,경상북도 상주시,054-537-7548,상주경찰서,N,,8,2019-05-27,5110000,경상북도 상주시
01,낙동 신오 노인회관,경상북도,상주시,47250,경상북도 상주시 선상서로 1425,경상북도 상주시 신오리 210-3,36.31793201,128.2176152,30,경상북도 상주시,054-537-7548,상주경찰서,N,,7,2019-05-27,5110000,경상북도 상주시
01,인평동 노인회관,경상북도,상주시,47250,경상북도 상주시 선상서로 2669,경상북도 상주시 인평동 160-3,36.394921,128.1722517,30,경상북도 상주시,054-537-7548,상주경찰서,N,,7,2019-05-27,5110000,경상북도 상주시
01,상주시 노인회관,경상북도,상주시,47250,경상북도 상주시 상서문3길 127,경상북도 상주시 남성동 14-5,36.41458714,128.158432,30,경상북도 상주시,054-537-7548,상주경찰서,N,,6,2019-05-27,5110000,경상북도 상주시
01,아천1리 노인회관,경상북도,상주시,47250,경상북도 상주시 이안면 무운로 1035-4,경상북도 상주시 아천리 255,36.5619523,128.1046935,30,경상북도 상주시,054-537-7548,상주경찰서,N,,8,2019-05-27,5110000,경상북도 상주시
01,우산1리 노인회관,경상북도,상주시,47250,경상북도 상주시 외서면 우산리 50-6,경상북도 상주시 우산리 50-6,36.488150,128.070988,30,경상북도 상주시,054-537-7548,상주경찰서,N,,7,2019-05-27,5110000,경상북도 상주시
01,장암2리 노인회관,경상북도,상주시,47250,경상북도 상주시 화북면 장암리 785-1,경상북도 상주시 장암리 785-1,36.585536,127.904719,30,경상북도 상주시,054-537-7548,상주경찰서,N,,8,2019-05-27,5110000,경상북도 상주시
01,득수2리 노인회관,경상북도,상주시,47250,경상북도 상주시 모서면 백화로 802,경상북도 상주시 득수리 184-3,36.335266,127.9024831,30,경상북도 상주시,054-537-7548,상주경찰서,N,,8,2019-05-27,5110000,경상북도 상주시
01,평지2리 노인회관,경상북도,상주시,47250,경상북도 상주시 내서면 영남제일로 2883-3,경상북도 상주시 평지리 68,36.39654641,128.0464151,30,경상북도 상주시,054-537-7548,상주경찰서,N,,6,2019-05-27,5110000,경상북도 상주시
01,소은2리 노인회관,경상북도,상주시,47250,경상북도 상주시 외남면 석단로 1193,경상북도 상주시 소은리 221-2,36.372268,128.1080891,30,경상북도 상주시,054-537-7548,상주경찰서,N,,6,2019-05-27,5110000,경상북도 상주시
01,청하2리 노인회관,경상북도,상주시,47250,경상북도 상주시 청리면 수선로 93,경상북도 상주시 청하리 560,36.329748,128.1338193,30,경상북도 상주시,054-537-7548,상주경찰서,N,,7,2019-05-27,5110000,경상북도 상주시
01,승곡리 노인회관,경상북도,상주시,47250,경상북도 상주시 낙동면 선상서로 1983,경상북도 상주시 승곡리 137-3,36.36116233,128.2266086,30,경상북도 상주시,054-537-7548,상주경찰서,N,,6,2019-05-27,5110000,경상북도 상주시
01,매호2리 노인회관,경상북도,상주시,47250,경상북도 상주시 사벌면 상풍로 984,경상북도 상주시 매협리 735-1,36.49191409,128.2552726,30,경상북도 상주시,054-537-7548,상주경찰서,N,,9,2019-05-27,5110000,경상북도 상주시
01,양평종합사회복지관,경기도,양평군,41830,경기도 양평군 용문면 용문역길 67,경기도 양평군 용문면 다문리 793-8,37.48055357,127.5892664,30,양평군청,031-770-3755,양평경찰서,Y,1,12,2019-09-18,4170000,경기도 양평군
1,대한노인회 성북지회,서울특별시,성북구,11290,서울특별시 성북구 안암로 79,서울특별시 안암동5가 104-37,37.5834205118,127.0297304403,30,서울특별시 성북구청,02-2241-3462,서울특별시 성북경찰서,N,0,5~30,2020-02-19,3070000,서울특별시 성북구
1,정릉1동커뮤니티센터,서울특별시,성북구,11290,서울특별시 성북구 정릉로38가길 6 (정릉동),서울특별시 성북구 정릉동 16-182,37.6020662,127.0183808,30,서울특별시 성북구청,02-2241-3462,서울특별시 성북경찰서,N,0,6,2020-02-19,3070000,서울특별시 성북구
1,석관실버복지센터,서울특별시,성북구,11290,서울특별시 성북구 화랑로32길 88 (석관동),서울특별시 성북구 석관동 261-394,37.6067095242,127.0582634,30,서울특별시 성북구청,02-2241-3462,서울특별시 종암경찰서,N,0,8,2020-02-19,3070000,서울특별시 성북구
1,갈동2리 경로당,경상북도,문경시,47280,경상북도 문경시 농암면 무운로 71,경상북도 문경시 농암면 갈동리 516,36.5912811,128.010414,30,문경시,054-550-6903,문경경찰서,N,,6,2019-09-27,5120000,경상북도 문경시
1,남호2리 경로당,경상북도,문경시,47280,경상북도 문경시 마성면 남호2길 38,경상북도 문경시 마성면 남호리 491-1,36.70613195,128.1164809815,30,문경시,054-550-6903,문경경찰서,N,,6,2019-09-27,5120000,경상북도 문경시
1,남호1리 경로당,경상북도,문경시,47280,경상북도 문경시 마성면 새재로 87,경상북도 문경시 마성면 남호리 78-2,36.70588226,128.1200406,30,문경시,054-550-6903,문경경찰서,N,,6,2019-09-27,5120000,경상북도 문경시
1,진정1리 경로당,경상북도,문경시,47280,경상북도 문경시 산양면 산남로 350,경상북도 문경시 산양면 진정리 25-1,36.60666757,128.239955,30,문경시,054-550-6903,문경경찰서,N,,6,2019-09-27,5120000,경상북도 문경시
1,생달1리 경로당,경상북도,문경시,47280,경상북도 문경시 동로면 약사정길 7-12,경상북도 문경시 동로면 생달리 73,36.78883241,128.2675117,30,문경시,054-550-6903,문경경찰서,N,,6,2019-09-27,5120000,경상북도 문경시
1,행복동산,경상북도,문경시,47280,경상북도 문경시 가은읍 대야로 2545,경상북도 문경시 가은읍 갈전리 693-9,36.64074699,128.0647815,30,문경시,054-550-6903,문경경찰서,N,,6,2019-09-27,5120000,경상북도 문경시
1,경동요양병원,서울특별시,동대문구,11230,서울특별시 동대문구 약령시로 124,서울특별시 동대문구 청량리동 689,37.58294153,127.0437706,30,서울특별시 동대문구,02-2127-4887,동대문경찰서,N,,15~28,2019-12-27,3050000,서울특별시 동대문구
1,장평경노당,서울특별시,동대문구,11230,서울특별시 동대문구 한천로28길 27,서울특별시 동대문구 장안동 143-26,37.5732520068,127.0684601,30,서울특별시 동대문구,02-2127-4887,동대문경찰서,N,,7,2019-12-27,3050000,서울특별시 동대문구
1,사)대한노인회,서울특별시,동대문구,11230,서울특별시 동대문구 사가정로 98,서울특별시 동대문구 전농동 295-495,37.57637482,127.0563417,40,서울특별시 동대문구,02-2127-4887,동대문경찰서,N,,20,2019-12-27,3050000,서울특별시 동대문구
1,행복마을경노당,서울특별시,동대문구,11230,서울특별시 동대문구 고산자로56길 53,서울특별시 동대문구 제기동 122-444,37.59000925,127.0386528,30,서울특별시 동대문구,02-2127-4887,동대문경찰서,N,,6,2019-12-27,3050000,서울특별시 동대문구
1,중산경노당,서울특별시,동대문구,11230,서울특별시 동대문구 답십리로48길 54,서울특별시 동대문구 답십리동 36-31,37.57035699,127.0576174,30,서울특별시 동대문구,02-2127-4887,동대문경찰서,Y,1,6,2019-12-27,3050000,서울특별시 동대문구
1,동대문노인종합복지관,서울특별시,동대문구,11230,서울특별시 동대문구 제기로33길 25,서울특별시 동대문구 청량리동 11-1,37.58723704,127.0500257811,30,서울특별시 동대문구,02-2127-4887,동대문경찰서,Y,1,6,2019-12-27,3050000,서울특별시 동대문구
2,해맑은마음터,경기도,김포시,41570,경기도 김포시 대곶면 율생중앙로 89,경기도 김포시 대곶면 율생리 472-5,37.6552084,126.5801928,30,경기도 김포시,031-980-2327,김포경찰서,N,,,2019-11-08,4090000,경기도 김포시
1,고막리 마을회관,경기도,김포시,41570,경기도 김포시 월곶면 김포대학로 232,경기도 김포시 월곶면 고막리 305,37.72531201,126.5577128,30,경기도 김포시,031-980-2327,김포경찰서,N,,,2019-11-08,4090000,경기도 김포시
1,갈산3리 경로당,경기도,김포시,41570,경기도 김포시 월곶면 오리정로 107-25,경기도 김포시 월곶면 갈산리 518-11,37.7038099150,126.5597977,30,경기도 김포시,031-980-2327,김포경찰서,N,,,2019-11-08,4090000,경기도 김포시
1,양촌읍 노인복지회관,경기도,김포시,41570,경기도 김포시 양촌읍 양곡1로68번길 37,경기도 김포시 양촌읍 양곡리 1554,37.6568733285,126.6256177042,30,경기도 김포시,031-980-2327,김포경찰서,N,,,2019-11-08,4090000,경기도 김포시
1,김포재가노인지원센터,경기도,김포시,41570,경기도 김포시 월곶면 김포대로 2857-39,경기도 김포시 월곶면 포내리 168-2,37.71745774,126.5359521,30,경기도 김포시,031-980-2327,김포경찰서,N,,,2019-11-08,4090000,경기도 김포시
1,김포시 노인복지회관,경기도,김포시,41570,경기도 김포시 사우중로74번길 48,경기도 김포시 사우동 865,37.62223641,126.7226196,30,경기도 김포시,031-980-2327,김포경찰서,Y,,,2019-11-08,4090000,경기도 김포시
01,소망의 집,광주광역시,광산구,29200,광주광역시 광산구 본동로 165-65,광주광역시 광산구 덕림동 15,35.171963,126.6796904,30,광주광역시 광산구,062-960-8633,광주광산경찰서,N,0,7,2019-03-04,3630000,광주광역시 광산구
01,어등재활원,광주광역시,광산구,29200,광주광역시 광산구 본동로 165-65,광주광역시 광산구 덕림동 15,35.171963,126.6796904,30,광주광역시 광산구,062-960-8633,광주광산경찰서,N,0,7,2019-03-04,3630000,광주광역시 광산구
01,보람의 집,광주광역시,광산구,29200,광주광역시 광산구 본동로 165-65,광주광역시 광산구 덕림동 15,35.171963,126.6796904,30,광주광역시 광산구,062-960-8633,광주광산경찰서,N,0,7,2019-03-04,3630000,광주광역시 광산구
01,소화성 가정,광주광역시,광산구,29200,광주광역시 광산구 노안삼도로 1373,광주광역시 광산구 삼거동 607-5,35.159139,126.669894,30,광주광역시 광산구,062-960-8633,광주광산경찰서,N,0,7,2019-03-04,3630000,광주광역시 광산구
01,백석바오로의 집,광주광역시,광산구,29200,광주광역시 광산구 노안삼도로 1311-1,광주광역시 광산구 삼거동 313-1,35.153141,126.671338,30,광주광역시 광산구,062-960-8633,광주광산경찰서,N,0,6,2019-03-04,3630000,광주광역시 광산구
01,애일의 집,광주광역시,광산구,29200,광주광역시 광산구 금동학동길 198,광주광역시 광산구 덕림동 729-1,35.189952,126.6709000,30,광주광역시 광산구,062-960-8633,광주광산경찰서,N,0,7,2019-03-04,3630000,광주광역시 광산구
01,명은노인전문요양원,광주광역시,광산구,29200,광주광역시 광산구 삼본로 14-13,광주광역시 광산구 덕림동 802-3,35.193692,126.6702407,30,광주광역시 광산구,062-960-8633,광주광산경찰서,N,0,5,2019-03-04,3630000,광주광역시 광산구
01,바라밀실버하우스,광주광역시,광산구,29200,광주광역시 광산구 구촌반촌길 108-1,광주광역시 광산구 신창동 1067-9,35.186788,126.844863,30,광주광역시 광산구,062-960-8633,광주광산경찰서,N,0,5,2019-03-04,3630000,광주광역시 광산구
01,장수실버그린,광주광역시,광산구,29200,광주광역시 광산구 송암길 27,광주광역시 광산구 삼거동 594-2,35.164878,126.666297,30,광주광역시 광산구,062-960-8633,광주광산경찰서,N,0,7,2019-03-04,3630000,광주광역시 광산구
01,해오름노인전문 요양원,광주광역시,광산구,29200,광주광역시 광산구 본동로 522,광주광역시 광산구 양산동 316-1,35.199847,126.681795,30,광주광역시 광산구,062-960-8633,광주광산경찰서,N,0,8,2019-03-04,3630000,광주광역시 광산구
02,광명장애인종합복지관,경기도,광명시,41210,경기도 광명시 목감로 120,경기도 광명시 광명동 164-2,37.479000,126.846500,30,광명시청,02-2680-2576,광명경찰서,N,,,2019-09-09,3900000,경기도 광명시
01,광명노인종합복지관,경기도,광명시,41210,경기도 광명시 소하로 25,경기도 광명시 소하동 1291,37.4521575,126.8849087,30,광명시청,02-2680-2576,광명경찰서,N,,,2019-09-09,3900000,경기도 광명시
01,광명노인요양센터,경기도,광명시,41210,경기도 광명시 오리로 613,경기도 광명시 하안동 230,37.4556262,126.8783005,60,광명시청,02-2680-2576,광명경찰서,N,,,2019-09-09,3900000,경기도 광명시
01,와촌면사무소,경상북도,경산시,47290,,경상북도 경산시 와촌면 덕촌리 60,35.946249,128.836333,30,경산시청,053-810-6126,경산경찰서,N,0,15,2019-09-10,5130000,경상북도 경산시
01,부림한방병원,경상북도,경산시,47290,경상북도 경산시 와촌면 하양로 359,경상북도 경산시 와촌면 용천리 821,35.9230243335,128.843314,30,경산시청,053-810-6126,경산경찰서,N,0,15,2019-09-10,5130000,경상북도 경산시
01,곡란경로당,경상북도,경산시,47290,경상북도 경산시 용성면 운용로 811,경상북도 경산시 용성면 곡란리 477,35.7707550672,128.877307556,30,경산시청,053-810-6126,경산경찰서,N,0,8,2019-09-10,5130000,경상북도 경산시
01,대한노인회 용성면분회,경상북도,경산시,47290,경상북도 경산시 용성면 용성당리1길 12,경상북도 경산시 용성면 당리리 64-1,35.794099,128.875534,30,경산시청,053-810-6126,경산경찰서,Y,4,8,2019-09-10,5130000,경상북도 경산시
01,경산시노인종합복지회관,경상북도,경산시,47290,경상북도 경산시 경청로222길 79,경상북도 경산시 백천동 146-7,35.801792293,128.747807861,30,경산시청,053-810-6126,경산경찰서,Y,2,7,2019-09-10,5130000,경상북도 경산시
1,중구노인복지회관 분관,부산광역시,중구,11680,부산광역시 중구 영주로 8-1,부산광역시 중구 영주동 287-9,35.11016123,129.0324972,30,부산광역시 중구청,051-600-4554,부산중부경찰서,N,0,7,2020-02-14,3250000,부산광역시 중구
1,중구노인복지회관,부산광역시,중구,11680,부산광역시 중구 책방골목길 3-1,부산광역시 중구 보수동1가 113,35.10414263,129.026183,30,부산광역시 중구청,051-600-4554,부산중부경찰서,N,0,4,2020-02-14,3250000,부산광역시 중구
1,신전2리경로당,경상북도,문경시,47280,경상북도 문경시 산양면 신기리길 1,경상북도 문경시 산양면 신전리 150-9,36.602022,128.260453,30,문경시,054-550-6903,문경경찰서,N,,6,2019-09-27,5120000,경상북도 문경시
1,대하1리경로당,경상북도,문경시,47280,경상북도 문경시 산북면 금천로 658,경상북도 문경시 산북면 대하리 481-1,36.66209012,128.260652,30,문경시,054-550-6903,문경경찰서,N,,6,2019-09-27,5120000,경상북도 문경시
1,서중리경로당,경상북도,문경시,47280,경상북도 문경시 산북면 서중길 15,경상북도 문경시 산북면 서중리 208,36.638309,128.247994,30,문경시,054-550-6903,문경경찰서,N,,6,2019-09-27,5120000,경상북도 문경시
1,내화리경로당,경상북도,문경시,47280,경상북도 문경시 산북면 내화1길 14-3,경상북도 문경시 산북면 내화리 677,36.68672539,128.278248,30,문경시,054-550-6903,문경경찰서,N,,6,2019-09-27,5120000,경상북도 문경시
1,의곡2리경로당,경상북도,문경시,47280,경상북도 문경시 영순면 영순로 207,경상북도 문경시 영순면 의곡리 402-9,36.578449,128.229732,30,문경시,054-550-6903,문경경찰서,N,,6,2019-09-27,5120000,경상북도 문경시
1,왕태2리경로당,경상북도,문경시,47280,경상북도 문경시 영순면 왕태2길 5,경상북도 문경시 영순면 왕태리 627-4,36.590459,128.2669059,30,문경시,054-550-6903,문경경찰서,N,,6,2019-09-27,5120000,경상북도 문경시
1,장자불경로당,경상북도,문경시,47280,경상북도 문경시 동로면 장자불길 15,경상북도 문경시 동로면 적성리 979-2,36.775598,128.293048,30,문경시,054-550-6903,문경경찰서,N,,6,2019-09-27,5120000,경상북도 문경시
1,천주경로당,경상북도,문경시,47280,경상북도 문경시 동로면 천주길 6-1,경상북도 문경시 동로면 간송리 908-1,36.73744929,128.311537,30,문경시,054-550-6903,문경경찰서,N,,6,2019-09-27,5120000,경상북도 문경시
1,간송2리 경로당,경상북도,문경시,47280,경상북도 문경시 동로면 금천로 2249,경상북도 문경시 동로면 간송리 288-1,36.7493562,128.3188385,30,문경시,054-550-6903,문경경찰서,N,,6,2019-09-27,5120000,경상북도 문경시
1,중평리 경로당,경상북도,문경시,47280,경상북도 문경시 문경읍 중평큰마길 4-3,경상북도 문경시 문경읍 중평리 381,36.79800116,128.189727,30,문경시,054-550-6903,문경경찰서,N,,6,2019-09-27,5120000,경상북도 문경시
1,내서1리 경로당,경상북도,문경시,47280,경상북도 문경시 농암면 청화로 767,경상북도 문경시 농암면 내서리 200-7,36.57119232,127.982618,30,문경시,054-550-6903,문경경찰서,N,,6,2019-09-27,5120000,경상북도 문경시
1,모곡리 경로당,경상북도,문경시,47280,경상북도 문경시 마성면 모곡1길 13,경상북도 문경시 마성면 모곡리 152-10,36.69294166,128.115526,30,문경시,054-550-6903,문경경찰서,N,,6,2019-09-27,5120000,경상북도 문경시
1,인곡1리 경로당,경상북도,문경시,47280,경상북도 문경시 동로면 용문경천로 255,경상북도 문경시 동로면 인곡리 213-3,36.7107878,128.3214066,30,문경시,054-550-6903,문경경찰서,N,,6,2019-09-27,5120000,경상북도 문경시
1,성저1리 경로당,경상북도,문경시,47280,경상북도 문경시 가은읍 성저2길 14,경상북도 문경시 가은읍 성저리 503,36.62522232,128.042457,30,문경시,054-550-6903,문경경찰서,N,,6,2019-09-27,5120000,경상북도 문경시
1,완장리벌바위 경로당,경상북도,문경시,47280,경상북도 문경시 가은읍 용추길 17-12,경상북도 문경시 가은읍 완장리 421-19,36.67292197,127.966869,30,문경시,054-550-6903,문경경찰서,N,,6,2019-09-27,5120000,경상북도 문경시
1,영동학구 경로당,경상북도,문경시,47280,경상북도 문경시 영순면 영순로 658,경상북도 문경시 영순면 오룡리 478,36.57504646,128.2751712,30,문경시,054-550-6903,문경경찰서,N,,6,2019-09-27,5120000,경상북도 문경시
1,존도솔광지 경로당,경상북도,문경시,47280,경상북도 문경시 산양면 잔두리2길 14,경상북도 문경시 산양면 존도리 32,36.6157993,128.2518278,30,문경시,054-550-6903,문경경찰서,N,,6,2019-09-27,5120000,경상북도 문경시
1,진정2리 경로당,경상북도,문경시,47280,경상북도 문경시 산양면 추산안길 20-11,경상북도 문경시 산양면 진정리 568,36.61593451,128.2336818,30,문경시,054-550-6903,문경경찰서,N,,6,2019-09-27,5120000,경상북도 문경시
1,우곡2리 경로당,경상북도,문경시,47280,경상북도 문경시 산북면 운달로 480,경상북도 문경시 산북면 우곡리 231-7,36.7040628,128.243015,30,문경시,054-550-6903,문경경찰서,N,,6,2019-09-27,5120000,경상북도 문경시
01,서안산노인전문병원,경기도,단원구,41273,경기도 안산시 단원구 원포공원로 54,경기도 안산시 단원구 초지동 742,37.3033081954,126.809893,30,경기도 안산시 단원구 경제교통과,031-481-6295,경기안산단원경찰서,N,0,8,2019-08-01,3930000,경기도 안산시
01,홀곶경로당,경기도,단원구,41273,경기도 안산시 단원구 대남로 544,경기도 안산시 단원구 대부남동 775-1,37.2110467023,126.554055464,30,경기도 안산시 단원구 경제교통과,031-481-6295,경기안산단원경찰서,Y,1,8,2019-08-01,3930000,경기도 안산시
01,남동노인정,경기도,단원구,41273,경기도 안산시 단원구 대남로 137,경기도 안산시 단원구 대부남동 376-25,37.231084,126.582031,30,경기도 안산시 단원구 경제교통과,031-481-6295,경기안산단원경찰서,N,0,8,2019-08-01,3930000,경기도 안산시
01,사랑의 선녀수녀회 평화의집,경기도,단원구,41273,경기도 안산시 단원구 평화길 8,경기도 안산시 단원구 고잔동 656-25,37.327580,126.8194033224,30,경기도 안산시 단원구 경제교통과,031-481-6295,경기안산단원경찰서,Y,2,8,2019-08-01,3930000,경기도 안산시
02,안산시 상록 장애인 복지관,경기도,상록구,41271,경기도 안산시 상록구 차돌배기로 24,경기도 안산시 상록구 사동 1586,37.299666,126.8461378121,30,경기도 안산시 상록구 경제교통과,031-481-5579,경기안산상록경찰서,Y,2,14,2019-08-01,3930000,경기도 안산시
02,빛과 둥지 비전센터 및  LN빛과둥지,경기도,상록구,41271,"경기도 안산시 상록구 시낭공원안길 19 ,22",경기도 안산시 상록구 부곡동 714-11,37.3368190218,126.858433,30,경기도 안산시 상록구 경제교통과,031-481-5579,경기안산상록경찰서,Y,2,4.5,2019-08-01,3930000,경기도 안산시
02,안산 평화의 집,경기도,상록구,41271,경기도 안산시 상록구 고목로3길8,경기도 안산시 상록구 본오동 982-7,37.2834615366,126.8599281169,30,경기도 안산시 상록구 경제교통과,031-481-5579,경기안산상록경찰서,Y,2,6.5,2019-08-01,3930000,경기도 안산시
01,안산시립노인전문병원,경기도,상록구,41271,경기도 안산시 상록구 차돌배기로 24,경기도 안산시 상록구 사동 1586,37.299674,126.8461378121,30,경기도 안산시 상록구 경제교통과,031-481-5579,경기안산상록경찰서,Y,2,14,2019-08-01,3930000,경기도 안산시
01,효누리주간보호센터,경기도,상록구,41271,경기도 안산시 상록구 성호로 303,경기도 안산시 상록구 부곡동 711,37.3302061762,126.8590425135,30,경기도 안산시 상록구 경제교통과,031-481-5579,경기안산상록경찰서,Y,2,14,2019-08-01,3930000,경기도 안산시
01,상록노인복지회관,경기도,상록구,41271,경기도 안산시 상록구 고잔로 162,경기도 안산시 상록구 성포동 589,37.318487,126.844302,30,경기도 안산시 상록구 경제교통과,031-481-5579,경기안산상록경찰서,Y,3,14,2019-08-01,3930000,경기도 안산시
01,동산노인복지관,경기도,상록구,41271,경기도 안산시 상록구 석호공원로 8,경기도 안산시 상록구 사동 1584-1,37.3014874063,126.8438647509,30,경기도 안산시 상록구 경제교통과,031-481-5579,경기안산상록경찰서,Y,2,14,2019-08-01,3930000,경기도 안산시
1,동막7리(대평)경로당,강원도,삼척시 근덕면,32070,강원도 삼척시 근덕면 문의재로 3169,강원도 삼척시 근덕면 동막리 1611-1,37.3079120049,129.1954251360,30,삼척시청,033-570-3486,삼척경찰서,N,,7m,2020-02-20,4240000,강원도 삼척시
1,교곡1리(양지마을)경로당,강원도,삼척시 근덕면,32070,강원도 삼척시 근덕면 교곡길 9,강원도 삼척시 근덕면 교곡리 256-8,37.368504,129.209648,30,삼척시청,033-570-3486,삼척경찰서,N,,7m,2020-02-20,4240000,강원도 삼척시
1,교가6리(무릉)경로당,강원도,삼척시 근덕면,32070,강원도 삼척시 근덕면 미근로 1661,강원도 삼척시 근덕면 교가리 911-6,37.376029,129.215125,30,삼척시청,033-570-3486,삼척경찰서,N,,7m,2020-02-20,4240000,강원도 삼척시
1,교가5리(도원)경로당,강원도,삼척시 근덕면,32070,강원도 삼척시 근덕면 미근로 1729-32,강원도 삼척시 근덕면 교가리 996,37.3804643163,129.219608,30,삼척시청,033-570-3486,삼척경찰서,N,,7m,2020-02-20,4240000,강원도 삼척시
1,번천리 경로당(산촌문화회관),강원도,삼척시 하장면,32070,강원도 삼척시 하장면 두타로 453,강원도 삼척시 하장면 번천리 131-8,37.3683294951,128.9994794127,30,삼척시청,033-570-3486,삼척경찰서,N,,7m,2020-02-20,4240000,강원도 삼척시
02,색동원,인천광역시,강화군,35700,인천광역시 강화군 길상면 장촌길 31,인천광역시 강화군 길상면 길직리 835-27,37.649339,126.4894240600,30,강화군청,032-930-3366,강화경찰서,N,,4,2019-09-20,3570000,인천광역시 강화군
01,바다의별요양원,인천광역시,강화군,35700,인천광역시 강화군 선원면 시리미로 42,인천광역시 강화군 선원면 선행리 176-1,37.7248568067,126.4744731993,30,강화군청,032-930-3366,강화경찰서,N,,6,2019-09-20,3570000,인천광역시 강화군
01,석포리노인회관,인천광역시,강화군,35700,인천광역시 강화군 삼산면 삼산남로 111,인천광역시 강화군 삼산면 석포리 318-1,37.6847705618,126.3645487885,30,강화군청,032-930-3366,강화경찰서,N,,6,2019-09-20,3570000,인천광역시 강화군
01,강화노인복지관,인천광역시,강화군,35700,인천광역시 강화군 강화읍 중앙로 17-16,인천광역시 강화군 강화읍 남산리 223-1,37.7403222524,126.4912093914,30,강화군청,032-930-3366,강화경찰서,N,,12,2019-09-20,3570000,인천광역시 강화군
01,호세요양원,인천광역시,강화군,35700,인천광역시 강화군 불은면 고려왕릉로 376,인천광역시 강화군 불은면 두운리 342-4,37.6741658660,126.4779458416,30,강화군청,032-930-3366,강화경찰서,N,,6,2019-09-20,3570000,인천광역시 강화군
01,백산강화실버홈,인천광역시,강화군,35700,인천광역시 강화군 불은면 강화동로 618,인천광역시 강화군 불은면 두운리 124-1,37.6900875991,126.477066,30,강화군청,032-930-3366,강화경찰서,N,,6,2019-09-20,3570000,인천광역시 강화군
1,비둘기아파트경로당,대구광역시,달서구,27290,대구광역시 달서구 상화로 371,,35.80861844,128.5522442604,30,대구광역시 달서구,053-667-3081,달서경찰서,N,0,20,2019-12-17,3470000,대구광역시 달서구
1,두류공원,대구광역시,달서구,27290,대구광역시 달서구 공원순환로 216,대구광역시 달서구 두류동 산 310-9,35.84454683,128.5615885,50,대구광역시 달서구,053-667-3081,성서경찰서,N,0,30,2019-12-17,3470000,대구광역시 달서구
1,성서노인종합복지관,대구광역시,달서구,27290,대구광역시 달서구 선원로 203,,35.85952931,128.5149235839,50,대구광역시 달서구,053-667-3081,성서경찰서,N,0,33,2019-12-17,3470000,대구광역시 달서구
1,"대구성로원, 대구샘노인요양센터",대구광역시,달서구,27290,대구광역시 달서구 진천로3길 80,,35.81048743,128.521247,30,대구광역시 달서구,053-667-3081,달서경찰서,Y,2,6~8,2019-12-17,3470000,대구광역시 달서구
1,달서노인종합복지관,대구광역시,달서구,27290,대구광역시 달서구 학산로 140,,35.83328112,128.5418069,40,대구광역시 달서구,053-667-3081,달서경찰서,Y,1,20~23,2019-12-17,3470000,대구광역시 달서구
01,아산3리 경로당,충청남도,아산시,45200,충청남도 아산시 영인면 영인로 179-1,충청남도 아산시 영인면 아산리 323-8,36.8636170,126.9492534,30,충남 아산시,041-540-2369,아산경찰서,N,0,8,2019-05-30,4520000,충청남도 아산시
01,월랑1리 경로당,충청남도,아산시,45200,충청남도 아산시 음봉면 월암로192번길 6,충청남도 아산시 음봉면 월랑리 362,36.8537134,127.0768823,30,충남 아산시,041-540-2369,아산경찰서,N,0,7,2019-05-30,4520000,충청남도 아산시
01,선창2구 경로당,충청남도,아산시,45200,충청남도 아산시 선장면 서부남로 307,충청남도 아산시 선장면 선창리 12-45,36.7853793,126.8939456,30,충남 아산시,041-540-2369,아산경찰서,N,0,8,2019-05-30,4520000,충청남도 아산시
01,점량동 경로당,충청남도,아산시,45200,충청남도 아산시 신정호길192번길 3,충청남도 아산시 점양동 99,36.7667707,126.9705596,30,충남 아산시,041-540-2369,아산경찰서,Y,1,8,2019-05-30,4520000,충청남도 아산시
01,실옥4통 경로당,충청남도,아산시,45200,충청남도 아산시 실옥로 187,충청남도 아산시 실옥동 300-4,36.7954505,126.9806829,30,충남 아산시,041-540-2369,아산경찰서,N,0,8,2019-05-30,4520000,충청남도 아산시
01,가덕2리 경로당,충청남도,아산시,45200,충청남도 아산시 신창면 서부북로 378,충청남도 아산시 신창면 가덕리 368-7,36.8113881,126.9102412,30,충남 아산시,041-540-2369,아산경찰서,N,0,7,2019-05-30,4520000,충청남도 아산시
01,메티케어요양원,충청남도,아산시,45200,충청남도 아산시 둔포면 윤보선로336번길 55-1,충청남도 아산시 둔포면 신항리 106-3,36.9019821,127.0196954,30,충남 아산시,041-540-2369,아산경찰서,N,0,7,2019-05-30,4520000,충청남도 아산시
01,신휴2리 경로당,충청남도,아산시,45200,충청남도 아산시 음봉면 관용로261번길 6,충청남도 아산시 음봉면 신휴리 322-2,36.8903392,127.0615259,30,충남 아산시,041-540-2369,아산경찰서,Y,1,7,2019-05-30,4520000,충청남도 아산시
01,염성1리 경로당,충청남도,아산시,45200,충청남도 아산시 염치읍 염치로 84,충청남도 아산시 염치읍 염성리 343,36.8149694597,126.9805350160,30,충남 아산시,041-540-2369,아산경찰서,N,0,7,2019-05-30,4520000,충청남도 아산시
01,금성리 경로당,충청남도,아산시,45200,충청남도 아산시 인주면 인주로 63,충청남도 아산시 인주면 금성리 183-1,36.8417449,126.8728480,30,충남 아산시,041-540-2369,아산경찰서,N,0,8,2019-05-30,4520000,충청남도 아산시
01,정애시니어빌,충청남도,아산시,45200,충청남도 아산시 선장면 서부남로 209,충청남도 아산시 선장면 신동리 136-8,36.7896534,126.8839047,30,충남 아산시,041-540-2369,아산경찰서,N,0,8,2019-05-30,4520000,충청남도 아산시
01,읍내2통 노인정,충청남도,아산시,45200,충청남도 아산시 온주길16번길 29-1,충청남도 아산시 읍내동 138-39,36.7597571,127.0194375,30,충남 아산시,041-540-2369,아산경찰서,N,0,5,2019-05-30,4520000,충청남도 아산시
01,아산실버요양원,충청남도,아산시,45200,충청남도 아산시 송악면 외암로 759,충청남도 아산시 송악면 마곡리 165-1,36.7073163,127.0059248,30,충남 아산시,041-540-2369,아산경찰서,N,0,12,2019-05-30,4520000,충청남도 아산시
01,봉재1리 장재경로당,충청남도,아산시,45200,충청남도 아산시 둔포면 봉신로 61,충청남도 아산시 둔포면 봉재리 207-5,36.8830614,127.0367248,30,충남 아산시,041-540-2369,아산경찰서,N,0,7,2019-05-30,4520000,충청남도 아산시
01,청솔노인전문요양원,충청남도,아산시,45200,충청남도 아산시 배방읍 고불로 70,충청남도 아산시 배방읍 수철리 74-4,36.7143338,127.0695890,30,충남 아산시,041-540-2369,아산경찰서,N,0,12,2019-05-30,4520000,충청남도 아산시
01,하얀민들레,충청남도,아산시,45200,충청남도 아산시 신창면 서부남로 820-15,충청남도 아산시 신창면 읍내리 117-3,36.7808045,126.9336513,30,충남 아산시,041-540-2369,아산경찰서,N,0,7,2019-05-30,4520000,충청남도 아산시
01,원남2리 경로당,충청남도,아산시,45200,충청남도 아산시 음봉면 연암율금로38번길 7,충청남도 아산시 음봉면 원남리 125-4,36.8646851,127.0311685,30,충남 아산시,041-540-2369,아산경찰서,N,0,16,2019-05-30,4520000,충청남도 아산시
01,삼선노인복지관,충청남도,아산시,45200,충청남도 아산시 선장면 아산만로 720,충청남도 아산시 선장면 대흥리 304-57,36.8034677,126.8676818,30,충남 아산시,041-540-2369,아산경찰서,Y,1,7,2019-05-30,4520000,충청남도 아산시
01,오목1리 행복경로당,충청남도,아산시,45200,충청남도 아산시 서부북로 591,충청남도 아산시 신창면 신달리 300-13,36.8060188,126.9325711,30,충남 아산시,041-540-2369,아산경찰서,N,0,7,2019-05-30,4520000,충청남도 아산시
01,밀두1리 행복경로당,충청남도,아산시,45200,충청남도 아산시 인주면 현대로 1312-9,충청남도 아산시 인주면 밀두리 173-3,36.8702747,126.8865149,30,충남 아산시,041-540-2369,아산경찰서,N,0,7,2019-05-30,4520000,충청남도 아산시
01,어르신쉼터(온양온천역 방문객센터),충청남도,아산시,45200,충청남도 아산시 온천대로 1496,충청남도 아산시 온천동 69-10,36.7804269,127.0034914,30,충남 아산시,041-540-2369,아산경찰서,Y,1,7,2019-05-30,4520000,충청남도 아산시
01,석정1리 경로당,충청남도,아산시,45200,충청남도 아산시 염치읍 염치로 252-3,충청남도 아산시 염치읍 석정리 622,36.8124520,126.9984366,30,충남 아산시,041-540-2369,아산경찰서,Y,1,7,2019-05-30,4520000,충청남도 아산시
01,아산노인종합복지관,충청남도,아산시,45200,충청남도 아산시 남산로 10 아산노인복지회관,충청남도 아산시 온천동 266-35,36.7819224,126.9953980,30,충남 아산시,041-540-2369,아산경찰서,Y,1,7,2019-05-30,4520000,충청남도 아산시
02,아름다운 동행,경기도,단원구,41273,경기도 안산시 단원구 화정천동로6길 15-1,경기도 안산시 단원구 와동 793-17,37.3465169202,126.820638,30,경기도 안산시 단원구 경제교통과,031-481-6295,경기안산단원경찰서,Y,1,15,2019-08-01,3930000,경기도 안산시
02,안산시장애인종합복지관,경기도,단원구,41273,경기도 안산시 단원구 원초로 80,경기도 안산시 단원구 초지동 604-10,37.325950,126.806562,30,경기도 안산시 단원구 경제교통과,031-481-6295,경기안산단원경찰서,Y,1,20,2019-08-01,3930000,경기도 안산시
01,단원구노인복지관,경기도,단원구,41273,경기도 안산시 단원구 선부광장1로 134,경기도 안산시 단원구 선부동 1077-9,37.3322685415,126.810584,30,경기도 안산시 단원구 경제교통과,031-481-6295,경기안산단원경찰서,Y,2,10,2019-08-01,3930000,경기도 안산시
01,아너스요양병원,경기도,단원구,41273,경기도 안산시 단원구 원포공원1로 49,경기도 안산시 단원구 초지동 743-4,37.3024091,126.8123032851,30,경기도 안산시 단원구 경제교통과,031-481-6295,경기안산단원경찰서,N,0,8,2019-08-01,3930000,경기도 안산시
1,음대리 경로당,충청남도,금산군,44710,충청남도 금산군 남일면 음대3길 6,,36.0252457836,127.5069533935,30,충청남도 금산군,041-750-2713,금산경찰서,N,0,,2019-12-03,4550000,충청남도 금산군
1,용진3리 경로당,충청남도,금산군,44710,충청남도 금산군 복수면 용진길 8,,36.1716338,127.4321218559,30,충청남도 금산군,041-750-2713,금산경찰서,N,0,,2019-12-03,4550000,충청남도 금산군
1,삼가1리 경로당,충청남도,금산군,44710,충청남도 금산군 진산면 휴양림로 2352,,36.1332597,127.3929878,30,충청남도 금산군,041-750-2713,금산경찰서,N,0,,2019-12-03,4550000,충청남도 금산군
1,만악3리 경로당,충청남도,금산군,44710,충청남도 금산군 진산면 놋종골길 51,,36.1480206,127.4208050942,30,충청남도 금산군,041-750-2713,금산경찰서,N,0,,2019-12-03,4550000,충청남도 금산군
1,흑암2리 경로당,충청남도,금산군,44710,충청남도 금산군 남이면 성산길 6,,36.0314274548,127.452148,30,충청남도 금산군,041-750-2713,금산경찰서,N,0,,2019-12-03,4550000,충청남도 금산군
1,흑암1리 경로당,충청남도,금산군,44710,충청남도 금산군 남이면 보석사로 303,,36.0236209,127.4549073734,30,충청남도 금산군,041-750-2713,금산경찰서,N,0,,2019-12-03,4550000,충청남도 금산군
1,역평2리 경로당,충청남도,금산군,44710,충청남도 금산군 남이면 중역평길 60,,36.0520185132,127.417364,30,충청남도 금산군,041-750-2713,금산경찰서,N,0,,2019-12-03,4550000,충청남도 금산군
1,불이1리 경로당,충청남도,금산군,44710,충청남도 금산군 부리면 무금로 1691-2,,36.0631063,127.5468530190,30,충청남도 금산군,041-750-2713,금산경찰서,N,0,,2019-12-03,4550000,충청남도 금산군
1,구억2리 경로당,충청남도,금산군,44710,충청남도 금산군 제원면 신안사로 73,,36.1279086752,127.545426,30,충청남도 금산군,041-750-2713,금산경찰서,N,0,,2019-12-03,4550000,충청남도 금산군
1,동곡1리 경로당,충청남도,금산군,44710,충청남도 금산군 제원면 동곡길 28,,36.1362882,127.5468224485,30,충청남도 금산군,041-750-2713,금산경찰서,N,0,,2019-12-03,4550000,충청남도 금산군
1,"천내1,3리 경로당",충청남도,금산군,44710,충청남도 금산군 제원면 금강로 334,,36.1121529,127.5701524628,30,충청남도 금산군,041-750-2713,금산경찰서,N,0,,2019-12-03,4550000,충청남도 금산군
1,부암1리 경로당,충청남도,금산군,44710,충청남도 금산군 진산면 뜬바우길 12,,36.1466275,127.3954918,30,충청남도 금산군,041-750-2713,금산경찰서,N,0,,2019-12-03,4550000,충청남도 금산군
1,나눔과 사랑의 집,충청남도,금산군,44710,충청남도 금산군 금성면 화림월곡길 11-4,,36.1217194,127.442025,30,충청남도 금산군,041-750-2713,금산경찰서,N,0,,2019-12-03,4550000,충청남도 금산군
1,섬김요양원,충청남도,금산군,44710,충청남도 금산군 복수면 복수로 450,,36.1855259410,127.378668,30,충청남도 금산군,041-750-2713,금산경찰서,N,0,,2019-12-03,4550000,충청남도 금산군
1,다락원,충청남도,금산군,44710,충청남도 금산군 금산읍 금산로 1559,,36.1120675408,127.4916373249,30,충청남도 금산군,041-750-2713,금산경찰서,N,0,,2019-12-03,4550000,충청남도 금산군
1,금산효사랑병원,충청남도,금산군,44710,충청남도 금산군 남일면 무금로 2145,,36.0828285883,127.505523,30,충청남도 금산군,041-750-2713,금산경찰서,N,0,,2019-12-03,4550000,충청남도 금산군
02,온유한집,충청남도,아산시,45200,충청남도 아산시 선장면 서부남로172번길 12-42,충청남도 아산시 선장면 선창리 195-11,36.7837982,126.8806914,30,충남 아산시,041-540-2369,아산경찰서,N,0,04월 05일,2019-05-30,4520000,충청남도 아산시
02,성모복지원,충청남도,아산시,45200,충청남도 아산시 영인면 신정리길 189,충청남도 아산시 영인면 성내리 49-2,36.8747446,127.0094158,30,충남 아산시,041-540-2369,아산경찰서,N,0,7,2019-05-30,4520000,충청남도 아산시
01,동화2리 경로당,충청남도,아산시,45200,충청남도 아산시 송악면 송악로453번길 6-4,충청남도 아산시 송악면 동화리 238-1,36.7225478,126.9799355,30,충남 아산시,041-540-2369,아산경찰서,N,0,7,2019-05-30,4520000,충청남도 아산시
01,창암3리 경로당,충청남도,아산시,45200,충청남도 아산시 신창면 순천향로 336-2,충청남도 아산시 신창면 창암리 548,36.7606498410,126.9634135540,30,충남 아산시,041-540-2369,아산경찰서,Y,1,8,2019-05-30,4520000,충청남도 아산시
01,문방2리 경로당,충청남도,아산시,45200,충청남도 아산시 인주면 아산만로1434번길 19-5,충청남도 아산시 인주면 문방리 445-11,36.8557065,126.8610649,30,충남 아산시,041-540-2369,아산경찰서,Y,1,8,2019-05-30,4520000,충청남도 아산시
01,해암4리 경로당,충청남도,아산시,45200,충청남도 아산시 인주면 현대로 862,충청남도 아산시 인주면 해암리 280-4,36.8320658,126.8847036,30,충남 아산시,041-540-2369,아산경찰서,Y,1,8,2019-05-30,4520000,충청남도 아산시
01,해암1리 경로당,충청남도,아산시,45200,충청남도 아산시 인주면 현대로 828,충청남도 아산시 인주면 해암리 267-5,36.8308744,126.8864136,30,충남 아산시,041-540-2369,아산경찰서,N,0,8,2019-05-30,4520000,충청남도 아산시
01,화천2리 노인회관,충청남도,아산시,45200,충청남도 아산시 도고면 도고산로 187,충청남도 아산시 도고면 화천리 238,36.7185859,126.9207168,30,충남 아산시,041-540-2369,아산경찰서,N,0,7,2019-05-30,4520000,충청남도 아산시
01,아산시 동부노인복지관,충청남도,아산시,45200,충청남도 아산시 배방읍 순천향로 1060,충청남도 아산시 배방읍 공수리 1037,36.7636915658,127.03802596,30,충남 아산시,041-540-2369,아산경찰서,N,0,7,2019-05-30,4520000,충청남도 아산시
01,구령2리 노인회관,충청남도,아산시,45200,충청남도 아산시 배방읍 구령길30번길 11-10,충청남도 아산시 배방읍 구령리 128-1,36.7790347,127.0522320,30,충남 아산시,041-540-2369,아산경찰서,N,0,16,2019-05-30,4520000,충청남도 아산시
01,동화1리 경로당,충청남도,아산시,45200,충청남도 아산시 송악면 송악로357번길 9-1,충청남도 아산시 송악면 동화리 688-1,36.7262848,126.9705002,30,충남 아산시,041-540-2369,아산경찰서,N,0,7,2019-05-30,4520000,충청남도 아산시
01,해암2리 경로당,충청남도,아산시,45200,충청남도 아산시 인주면 현대로727번길 7,충청남도 아산시 인주면 해암리 195-2,36.8274297,126.8970935,30,충남 아산시,041-540-2369,아산경찰서,N,0,7,2019-05-30,4520000,충청남도 아산시
01,곡교2리 경로당,충청남도,아산시,45200,충청남도 아산시 염치읍 곡교리길 63,충청남도 아산시 염치읍 곡교리 446,36.8107038,126.9875883,30,충남 아산시,041-540-2369,아산경찰서,N,0,7,2019-05-30,4520000,충청남도 아산시
1,지방2리 경로당,충청남도,금산군,44710,충청남도 금산군 진산면 가사동길 7,,36.1849612,127.351741,30,충청남도 금산군,041-750-2713,금산경찰서,N,0,,2019-12-03,4550000,충청남도 금산군
1,지방1리 경로당,충청남도,금산군,44710,충청남도 금산군 진산면 지방골길 60,,36.1779178,127.351226,30,충청남도 금산군,041-750-2713,금산경찰서,N,0,,2019-12-03,4550000,충청남도 금산군
1,두지1리 경로당,충청남도,금산군,44710,충청남도 금산군 진산면 실학로 30,,36.1681837787,127.3450967,30,충청남도 금산군,041-750-2713,금산경찰서,N,0,,2019-12-03,4550000,충청남도 금산군
1,미량(양곡1리) 경로당,충청남도,금산군,44710,충청남도 금산군 부리면 미량길 6,,36.0656277,127.5610122168,30,충청남도 금산군,041-750-2713,금산경찰서,N,0,,2019-12-03,4550000,충청남도 금산군
1,목소리 경로당,충청남도,금산군,44710,충청남도 금산군 복수면 도랜말길 4,,36.1768130936,127.411452,30,충청남도 금산군,041-750-2713,금산경찰서,N,0,,2019-12-03,4550000,충청남도 금산군
1,신평1리 경로당,충청남도,금산군,44710,충청남도 금산군 추부면 신평길 12-14,,36.2262863,127.506534,30,충청남도 금산군,041-750-2713,금산경찰서,N,0,,2019-12-03,4550000,충청남도 금산군
1,신평2리 경로당,충청남도,금산군,44710,충청남도 금산군 추부면 신평1길 59,,36.2294395561,127.507187,30,충청남도 금산군,041-750-2713,금산경찰서,N,0,,2019-12-03,4550000,충청남도 금산군
1,산안1리 경로당,충청남도,금산군,44710,충청남도 금산군 군북면 산꽃로 438,,36.1941598,127.5537666561,30,충청남도 금산군,041-750-2713,금산경찰서,N,0,,2019-12-03,4550000,충청남도 금산군
1,구석1리 경로당,충청남도,금산군,44710,충청남도 금산군 남이면 모티길 48,,36.0169030634,127.476443,30,충청남도 금산군,041-750-2713,금산경찰서,N,0,,2019-12-03,4550000,충청남도 금산군
1,읍내3리 경로당,충청남도,금산군,44710,충청남도 금산군 진산면 방축길 23,,36.1469178,127.377052,30,충청남도 금산군,041-750-2713,금산경찰서,N,0,,2019-12-03,4550000,충청남도 금산군
1,명곡1리 경로당,충청남도,금산군,44710,충청남도 금산군 제원면 구상2길 18,,36.1415861767,127.533272,30,충청남도 금산군,041-750-2713,금산경찰서,N,0,,2019-12-03,4550000,충청남도 금산군
1,마전5리 경로당,충청남도,금산군,44710,충청남도 금산군 추부면 다복로 619,,36.1853118869,127.4527675467,30,충청남도 금산군,041-750-2713,금산경찰서,N,0,,2019-12-03,4550000,충청남도 금산군
1,원동 경로당,충청남도,금산군,44710,충청남도 금산군 남일면 원동길 8,,36.0069148,127.5229949034,30,충청남도 금산군,041-750-2713,금산경찰서,N,0,,2019-12-03,4550000,충청남도 금산군
1,구례1리 경로당,충청남도,금산군,44710,충청남도 금산군 복수면 복수로 660,,36.2016226,127.379393,30,충청남도 금산군,041-750-2713,금산경찰서,N,0,,2019-12-03,4550000,충청남도 금산군
1,벌넘어경로당,충청남도,금산군,44710,충청남도 금산군 남일면 벌넘어길 32,,36.0224131,127.4851602147,30,충청남도 금산군,041-750-2713,금산경찰서,N,0,,2019-12-03,4550000,충청남도 금산군
1,신천2리 경로당,충청남도,금산군,44710,충청남도 금산군 남일면 양대길 18,,36.0290292,127.496398,30,충청남도 금산군,041-750-2713,금산경찰서,N,0,,2019-12-03,4550000,충청남도 금산군
1,교촌1리 경로당,충청남도,금산군,44710,충청남도 금산군 진산면 대둔산로 539,,36.1513149,127.382921,30,충청남도 금산군,041-750-2713,금산경찰서,N,0,,2019-12-03,4550000,충청남도 금산군
1,서대1리대동경로당(통합지정),충청남도,금산군,44710,충청남도 금산군 추부면 서대수통1길 65-3,,36.2146667483,127.5207243,30,충청남도 금산군,041-750-2713,금산경찰서,N,0,,2019-12-03,4550000,충청남도 금산군
1,읍내1리 경로당,충청남도,금산군,44710,충청남도 금산군 진산면 대둔산로 377,,36.14237753,127.3690515,30,충청남도 금산군,041-750-2713,금산경찰서,N,0,,2019-12-03,4550000,충청남도 금산군
1,행정2리 경로당,충청남도,금산군,44710,충청남도 금산군 진산면 태고사로 587,,36.1620571,127.323673,30,충청남도 금산군,041-750-2713,금산경찰서,N,0,,2019-12-03,4550000,충청남도 금산군
1,행정1리 경로당,충청남도,금산군,44710,충청남도 금산군 진산면 살구정길 71,,36.1590509,127.330337,30,충청남도 금산군,041-750-2713,금산경찰서,N,0,,2019-12-03,4550000,충청남도 금산군
1,역평1리 경로당,충청남도,금산군,44710,충청남도 금산군 남이면 상역평길 17,,36.0611414,127.409858,30,충청남도 금산군,041-750-2713,금산경찰서,N,0,,2019-12-03,4550000,충청남도 금산군
1,홍도리 경로당,충청남도,금산군,44710,충청남도 금산군 남일면 대홍로 632-8,,36.0171101,127.518054,30,충청남도 금산군,041-750-2713,금산경찰서,N,0,,2019-12-03,4550000,충청남도 금산군
1,두두2리경로당,충청남도,금산군,44710,충청남도 금산군 군북면 군북로 701,,36.1664115,127.526031,30,충청남도 금산군,041-750-2713,금산경찰서,N,0,,2019-12-03,4550000,충청남도 금산군
1,조정리 경로당,충청남도,금산군,44710,충청남도 금산군 군북면 조정길 15,,36.1932736,127.522964,30,충청남도 금산군,041-750-2713,금산경찰서,N,0,,2019-12-03,4550000,충청남도 금산군
1,천을리 경로당,충청남도,금산군,44710,충청남도 금산군 군북면 군북로 602,,36.1583713,127.529474,30,충청남도 금산군,041-750-2713,금산경찰서,N,0,,2019-12-03,4550000,충청남도 금산군
1,지암 경로당,충청남도,금산군,44710,충청남도 금산군 남이면 느티골길 16,,36.0804415,127.3693205,30,충청남도 금산군,041-750-2713,금산경찰서,N,0,,2019-12-03,4550000,충청남도 금산군
1,일양 경로당,충청남도,금산군,44710,충청남도 금산군 남이면 휴양림로 1550-2,,36.0865572,127.360239,30,충청남도 금산군,041-750-2713,금산경찰서,N,0,,2019-12-03,4550000,충청남도 금산군
1,건천1리 경로당,충청남도,금산군,44710,충청남도 금산군 남이면 휴양림로 1299,,36.0768034,127.378199,30,충청남도 금산군,041-750-2713,금산경찰서,N,0,,2019-12-03,4550000,충청남도 금산군
1,양전1리남자경로당,충청남도,금산군,44710,충청남도 금산군 금성면 양전길 21,,36.1224969,127.4781283,30,충청남도 금산군,041-750-2713,금산경찰서,N,0,,2019-12-03,4550000,충청남도 금산군
1,원터 경로당,충청남도,금산군,44710,충청남도 금산군 금성면 원터길 9,,36.1330235458,127.443337,30,충청남도 금산군,041-750-2713,금산경찰서,N,0,,2019-12-03,4550000,충청남도 금산군
1,동편리 경로당,충청남도,금산군,44710,충청남도 금산군 군북면 퉁점길 3,,36.1789114046,127.5247629,30,충청남도 금산군,041-750-2713,금산경찰서,N,0,,2019-12-03,4550000,충청남도 금산군
1,공주말경로당,대전광역시,동구,11680,대전광역시 동구 산내로929번길 15-5(삼괴동),대전광역시 동구 삼괴동 209,36.2525099683,127.4764988,30,대전광역시 동구청,042-251-4885,대전광역시 동부경찰서,N,0,,2020-02-25,3640000,대전광역시 동구
1,삼곡경로당,대전광역시,동구,11680,대전광역시 동구 세천공원로 69(세천동),대전광역시 동구 세천동 358-1,36.3306024160,127.4846180068,30,대전광역시 동구청,042-251-4885,대전광역시 동부경찰서,N,0,,2020-02-25,3640000,대전광역시 동구
1,낭월동제2경로당,대전광역시,동구,11680,대전광역시 동구 산내로 1362-6(낭월동),대전광역시 동구 낭월동 212-25,36.2848255,127.4661094,30,대전광역시 동구청,042-251-4885,대전광역시 동부경찰서,N,0,,2020-02-25,3640000,대전광역시 동구
1,진등경로당,대전광역시,동구,11680,대전광역시 동구 동서대로1678번길 17(성남동),대전광역시 동구 성남동 495-1,36.34811776,127.4369003,30,대전광역시 동구청,042-251-4885,대전광역시 동부경찰서,N,0,,2020-02-25,3640000,대전광역시 동구
1,용정경로당,대전광역시,동구,11680,대전광역시 동구 계족로446번길 19(용전동),대전광역시 동구 용전동 132-3,36.3513688,127.4336686,30,대전광역시 동구청,042-251-4885,대전광역시 동부경찰서,N,0,,2020-02-25,3640000,대전광역시 동구
1,매봉경로당,대전광역시,동구,11680,대전광역시 동구 가양로132번길 26(가양동),대전광역시 동구 가양동 430-6,36.3481346,127.4427451,30,대전광역시 동구청,042-251-4885,대전광역시 동부경찰서,N,0,,2020-02-25,3640000,대전광역시 동구
1,가양동 제1 남여경로당,대전광역시,동구,11680,대전광역시 동구 합내로 7-6(가양동),대전광역시 동구 가양동 531-35,36.34377936,127.4403783,30,대전광역시 동구청,042-251-4885,대전광역시 동부경찰서,N,0,,2020-02-25,3640000,대전광역시 동구
1,동구노인종합복지관,대전광역시,동구,11680,대전광역시 동구 충정로 53-30(가양동),대전광역시 동구 가양동 13-1,36.34648067,127.4563412,30,대전광역시 동구청,042-251-4885,대전광역시 동부경찰서,N,0,,2020-02-25,3640000,대전광역시 동구
1,행복한 어르신 복지관,대전광역시,동구,11680,대전광역시 동구 동부로 23(판암동),대전광역시 동구 판암동 518-3,36.3194166384,127.4563881,30,대전광역시 동구청,042-251-4885,대전광역시 동부경찰서,N,0,,2020-02-25,3640000,대전광역시 동구
2,사랑쉼터의 집,서울특별시,강동구,11740,서울특별시 강동구 상암로79길 24,서울특별시 강동구 상일동 473-1,37.5467303,127.1672648,30,서울특별시 강동구청,02-3425-5070,강동경찰서,Y,1,8~20,2019-12-06,3240000,서울특별시 강동구
2,암사재활원,서울특별시,강동구,11740,서울특별시 강동구 올림픽로 864,서울특별시 강동구 암사동 196-1,37.5579682444,127.1314305,30,서울특별시 강동구청,02-3425-5070,강동경찰서,Y,1,20,2019-12-06,3240000,서울특별시 강동구
1,강동노인종합복지관,서울특별시,강동구,11740,서울특별시 강동구 동남로71길 32-5,서울특별시 강동구 명일동 48-10,37.5522497,127.1546197592,30,서울특별시 강동구청,02-3425-5070,강동경찰서,Y,1,18,2019-12-06,3240000,서울특별시 강동구
1,성안장수마을요양원,서울특별시,강동구,11740,서울특별시 강동구 구천면로68길 46,서울특별시 강동구 천호동 26-18,37.5485615,127.1426702,30,서울특별시 강동구청,02-3425-5070,강동경찰서,Y,1,3,2019-12-06,3240000,서울특별시 강동구
1,성내천경로당,서울특별시,강동구,11740,서울특별시 강동구 성안로3길 112-9,서울특별시 강동구 성내동 558-8,37.5285135953,127.1240782,30,서울특별시 강동구청,02-3425-5070,강동경찰서,N,1,3,2019-12-06,3240000,서울특별시 강동구
1,강동노인회관,서울특별시,강동구,11740,서울특별시 강동구 천중로49길 104,서울특별시 강동구 명일동 351-2,37.54525764,127.144746,30,서울특별시 강동구청,02-3425-5070,강동경찰서,Y,1,3,2019-12-06,3240000,서울특별시 강동구
1,구립해공노인복지관,서울특별시,강동구,11740,서울특별시 강동구 천중로17길 42-16,서울특별시 강동구 천호동 302-4,37.5462081298,127.1317001,30,서울특별시 강동구청,02-3425-5070,강동경찰서,Y,1,3,2019-12-06,3240000,서울특별시 강동구
1,서울시립양로원,서울특별시,강동구,11740,서울특별시 강동구 고덕로 199,서울특별시 강동구 고덕동 317-23,37.5558669,127.1469632356,30,서울특별시 강동구청,02-3425-5070,강동경찰서,N,,20,2019-12-06,3240000,서울특별시 강동구
2,비단고을단기보호,충청남도,금산군,44710,충청남도 금산군 제원면 군북로 143-25,,36.12246727,127.539477,30,충청남도 금산군,041-750-2714,금산경찰서,N,0,,2019-12-03,4550000,충청남도 금산군
2,다솜,충청남도,금산군,44710,충청남도 금산군 금성면 마수로 208,,36.1462482,127.4793836,30,충청남도 금산군,041-750-2714,금산경찰서,N,0,,2019-12-03,4550000,충청남도 금산군
1,원구석 경로당,충청남도,금산군,44710,충청남도 금산군 남이면 거북바위길19,,36.0170350654,127.4666946059,30,충청남도 금산군,041-750-2713,금산경찰서,N,0,,2019-12-03,4550000,충청남도 금산군
1,명암리 노인회관,충청남도,금산군,44710,충청남도 금산군 제원면 울바우길10,,36.1100439427,127.5372714084,30,충청남도 금산군,041-750-2713,금산경찰서,N,0,,2019-12-03,4550000,충청남도 금산군
1,당디 경로당(묵산2리 경로당),충청남도,금산군,44710,충청남도 금산군 진산면 안당디길 14,,36.1521122966,127.3649544596,30,충청남도 금산군,041-750-2713,금산경찰서,N,0,,2019-12-03,4550000,충청남도 금산군
1,비례1리 경로당,충청남도,금산군,44710,충청남도 금산군 추부면 골말길 55,,36.2075072752,127.4838980057,30,충청남도 금산군,041-750-2713,금산경찰서,N,0,,2019-12-03,4550000,충청남도 금산군
1,선원리 경로당,충청남도,금산군,44710,충청남도 금산군 부리면 선원1길 11,,36.0727712891,127.5489180538,30,충청남도 금산군,041-750-2713,금산경찰서,N,0,,2019-12-03,4550000,충청남도 금산군
1,지량1리 경로당,충청남도,금산군,44710,충청남도 금산군 복수면 지량길 33,,36.2474184363,127.3699630932,30,충청남도 금산군,041-750-2713,금산경찰서,N,0,,2019-12-03,4550000,충청남도 금산군
1,금고 경로당 (현내2리 경로당),충청남도,금산군,44710,충청남도 금산군 부리면 금고길 19,,36.0488142409,127.5619800435,30,충청남도 금산군,041-750-2713,금산경찰서,N,0,,2019-12-03,4550000,충청남도 금산군
1,상막현 경로당,충청남도,금산군,44710,충청남도 금산군 진산면 상막현길 2,,36.1935137424,127.3528587634,30,충청남도 금산군,041-750-2713,금산경찰서,N,0,,2019-12-03,4550000,충청남도 금산군
1,하막현 경로당,충청남도,금산군,44710,충청남도 금산군 진산면 하막현길 77,,36.2040661,127.368057,30,충청남도 금산군,041-750-2713,금산경찰서,N,0,,2019-12-03,4550000,충청남도 금산군
1,양지경로당,인천광역시,연수구,28185,인천광역시 연수구 옥련로99번길 61-8,인천광역시 연수구 옥련동 260-7,37.4277184,126.6522092499,30,인천광역시 연수구,032-749-8754,연수경찰서,Y,2,6,2019-04-11,3520000,인천광역시 연수구
1,농원경로당,인천광역시,연수구,28185,인천광역시 연수구 동곡재로156,인천광역시 연수구 동춘동 950-1,37.4135131350,126.6661103911,30,인천광역시 연수구,032-749-8754,연수경찰서,Y,5,6,2019-04-11,3520000,인천광역시 연수구
1,청학골경로당,인천광역시,연수구,28185,인천광역시 연수구청학동 114-2,인천광역시 연수구 청학동 114-2,37.4254959,126.6625951,30,인천광역시 연수구,032-749-8754,연수경찰서,Y,1,8~12,2019-04-11,3520000,인천광역시 연수구
1,청학노인문화센터,인천광역시,연수구,28185,인천광역시 연수구 청학로12번길 53,인천광역시 연수구 청학동 539-2,37.4276784954,126.6666123931,30,인천광역시 연수구,032-749-8754,연수경찰서,Y,3,8,2019-04-11,3520000,인천광역시 연수구
1,청로경로당,인천광역시,연수구,28185,인천광역시 연수구 청학로27번길 32-1,인천광역시 연수구 청학동 32-25,37.4298171,126.6617071,30,인천광역시 연수구,032-749-8754,연수경찰서,Y,3,6,2019-04-11,3520000,인천광역시 연수구
1,덕화노인요양원,인천광역시,연수구,28185,인천광역시 연수구 청량로109번길 95,인천광역시 연수구 동춘동 822,37.4149573,126.6540076,30,인천광역시 연수구,032-749-8754,연수경찰서,Y,3,6,2019-04-11,3520000,인천광역시 연수구
1,노인복지관,인천광역시,연수구,28185,인천광역시 연수구 함박뫼로162,인천광역시 연수구 연수동 580,37.4218254393,126.6849849114,30,인천광역시 연수구,032-749-8754,연수경찰서,Y,2,16,2019-04-11,3520000,인천광역시 연수구
1,인천영락원,인천광역시,연수구,28185,인천광역시 연수구 청량로58,인천광역시 연수구 동춘동 796-6,37.4144066045,126.6596722069,30,인천광역시 연수구,032-749-8754,연수경찰서,Y,2,6~12,2019-04-11,3520000,인천광역시 연수구
01,화양면장수마을경로당,전라남도,여수시,46130,전라남도 여수시 화양면 장수리 955-1,전라남도 여수시 화양면 장수리 955-1,34.1007280,127.1628680,30,전라남도 여수시청,061-659-4143,여수경찰서,N,0,07,2019-06-26,4810000,전라남도 여수시
01,율촌면가장문화마을경로당,전라남도,여수시,46130,전라남도 여수시 율촌면 가장리 2002-3,전라남도 여수시 율촌면 가장리 2002-3,34.1005130,127.1650470,30,전라남도 여수시청,061-659-4143,여수경찰서,N,0,07,2019-06-26,4810000,전라남도 여수시
01,소라면장척마을경로당,전라남도,여수시,46130,전라남도 여수시 소라면 사곡리 1191-4,전라남도 여수시 소라면 사곡리 1191-4,34.1006010,127.1644170,30,전라남도 여수시청,061-659-4143,여수경찰서,N,0,09,2019-06-26,4810000,전라남도 여수시
01,남면소유경로당,전라남도,여수시,46130,전라남도 여수시 남면 금오로 446,전라남도 여수시 남면 유송리 155,34.1024540,127.1615180,30,전라남도 여수시청,061-659-4143,여수경찰서,N,0,08,2019-06-26,4810000,전라남도 여수시
01,돌산읍하얀연꽃요양원,전라남도,여수시,46130,전라남도 여수시 계동로 427,전라남도 여수시 돌산평사 310-3,34.1007790,127.1653200,30,전라남도 여수시청,061-659-4143,여수경찰서,N,0,07,2019-06-26,4810000,전라남도 여수시
01,국동동여수노인복지관,전라남도,여수시,46130,전라남도 여수시 국동5길 7,전라남도 여수시 국동 688-1,34.1019880,127.1637490,30,전라남도 여수시청,061-659-4143,여수경찰서,N,0,10,2019-06-26,4810000,전라남도 여수시
01,학동노인복지관,전라남도,여수시,46130,전라남도 여수시 학동서4길 58-16(학동),전라남도 여수시 학동 65,34.1014570,127.1641150,30,전라남도 여수시청,061-659-4143,여수경찰서,N,0,08,2019-06-26,4810000,전라남도 여수시
1,신곡노인종합복지관,경기도,의정부시,41150,경기도 의정부시 금신로297번길 38 (신곡동),경기도 의정부시 신곡동 129,37.74318625,127.0635237,30,경기도 의정부시,031-828-4843,의정부경찰서,N,,,2019-12-01,3820000,경기도 의정부시
1,나눔의 샘,경기도,의정부시,41150,경기도 의정부시 오목로 134 (민락동),경기도 의정부시 민락동 543,37.7392213,127.0946501,30,경기도 의정부시,031-828-4843,의정부경찰서,N,,,2019-12-01,3820000,경기도 의정부시
1,대한노인회의정부지회,경기도,의정부시,41150,경기도 의정부시 태평로74번길 23-11 (의정부동),경기도 의정부시 의정부동 30-6,37.73963395,127.0530733,30,경기도 의정부시,031-828-4843,의정부경찰서,N,,,2019-12-01,3820000,경기도 의정부시
1,의정부노인복지관,경기도,의정부시,41150,경기도 의정부시 경의로85번길 16-12 (의정부동),경기도 의정부시 의정부동 580-3,37.73367211,127.0456047,30,경기도 의정부시,031-828-4843,의정부경찰서,N,,,2019-12-01,3820000,경기도 의정부시
1,송산노인복지회관,경기도,의정부시,41150,경기도 의정부시 용민로 99 (민락동),경기도 의정부시 민락동 736-2,37.7388894263,127.0887653,30,경기도 의정부시,031-828-4843,의정부경찰서,N,,,2019-12-01,3820000,경기도 의정부시
2,사랑의 집,대전광역시,동구,11680,대전광역시 동구 백룡로14번길 13(자양동),대전광역시 동구 자양동61-1,36.3352221,127.4484391227,30,대전광역시 동구청,042-251-4885,대전광역시 동부경찰서,N,0,,2020-02-25,3640000,대전광역시 동구
1,성남동여자경로당,대전광역시,동구,11680,대전광역시 동구 계족로 354-1(성남동),대전광역시 동구 성남동 166-21,36.3439124,127.4345436,30,대전광역시 동구청,042-251-4885,대전광역시 동부경찰서,N,0,,2020-02-25,3640000,대전광역시 동구
1,자양동경로당,대전광역시,동구,11680,대전광역시 동구 성동로 61-14(자양동),대전광역시 동구 자양동 201-22,36.3409208859,127.4509976858,30,대전광역시 동구청,042-251-4885,대전광역시 동부경찰서,N,0,,2020-02-25,3640000,대전광역시 동구
1,주곡경로당,대전광역시,동구,11680,대전광역시 동구 동대전로 104번길 41(대동),대전광역시 동구 대동 61-19,36.3306491,127.4469329,30,대전광역시 동구청,042-251-4885,대전광역시 동부경찰서,N,0,,2020-02-25,3640000,대전광역시 동구
1,동부경로당,대전광역시,동구,11680,대전광역시 동구 가양남로13번길 57(가양동),대전광역시 동구 가양동 318-3,36.3421269,127.4447133904,30,대전광역시 동구청,042-251-4885,대전광역시 동부경찰서,N,0,,2020-02-25,3640000,대전광역시 동구
1,대전노인요양원,대전광역시,동구,11680,대전광역시 동구 신기로109-22(가오동),대전광역시 동구 가오동 87-1,36.3123147185,127.4583515,30,대전광역시 동구청,042-251-4885,대전광역시 동부경찰서,N,0,,2020-02-25,3640000,대전광역시 동구
1,목련경로당,대전광역시,동구,11680,대전광역시 동구 백룡로 16(자양동),대전광역시 동구 자양동 60-1,36.3354571,127.4486545,30,대전광역시 동구청,042-251-4885,대전광역시 동부경찰서,N,0,,2020-02-25,3640000,대전광역시 동구
1,부민 노인복지관,부산광역시,서구,26140,부산광역시 서구 부용로 30,,35.107418,129.018067,30,부산광역시 서구,051-240-4374,서부경찰서,N,,,2019-11-14,3260000,부산광역시 서구
1,인창서구그린빌,부산광역시,서구,26140,부산광역시 서구 대영로73번길 111,,35.115148,129.016535,30,부산광역시 서구,051-240-4375,서부경찰서,Y,,,2019-11-14,3260000,부산광역시 서구
1,실버웰노인건강센터,부산광역시,서구,26140,부산광역시 서구 시약로 35,,35.1126340413,129.0085012760,30,부산광역시 서구,051-240-4375,서부경찰서,Y,,,2019-11-14,3260000,부산광역시 서구
1,안나노인건강센터,부산광역시,서구,26140,부산광역시 서구 꽃마을로163번길 94-16,,35.127753,129.0047826411,30,부산광역시 서구,051-240-4375,서부경찰서,N,,,2019-11-14,3260000,부산광역시 서구
1,해강노인교실,부산광역시,서구,26140,부산광역시 서구 해돋이로 67,,35.0851729825,129.020251,30,부산광역시 서구,051-240-4374,서부경찰서,N,,,2019-11-14,3260000,부산광역시 서구
1,서화1리 경로당,강원도,인제군,42810,강원도 인제군 서화면 금강로 1663,강원도 인제군 서화면 서화리 796-12,38.2433682972,128.2075492021,30,강원도 인제군,033-460-2214,인제경찰서,N,0,6,2019-10-23,4330000,강원도 인제군
1,월학3리 경로당,강원도,인제군,42810,강원도 인제군 북면 금강로 769,강원도 인제군 북면 월학리 781-4,38.1728088235,128.2055713746,30,강원도 인제군,033-460-2214,인제경찰서,N,0,6,2019-10-23,4330000,강원도 인제군
1,월학2리 경로당,강원도,인제군,42810,강원도 인제군 북면 금강로 585-6,강원도 인제군 북면 월학리 546-5,38.1582928371,128.2057065276,30,강원도 인제군,033-460-2214,인제경찰서,N,0,6~8,2019-10-23,4330000,강원도 인제군
1,하남1리 경로당,강원도,인제군,42810,강원도 인제군 상남면 내린천로 3303,강원도 인제군 상남면 하남리 398-5,37.9175294083,128.2912166356,30,강원도 인제군,033-460-2214,인제경찰서,N,0,6,2019-10-23,4330000,강원도 인제군
01,원효로경로당,서울특별시,용산구,30200,서울특별시 용산구 원효로41가길 14-19,서울특별시 용산구 원효로3가 1-139,37.5349029773,126.9565533557,30,용산구청,02-2199-7755,용산경찰서,N,,5~11,2020-02-18,3020000,서울특별시 용산구
01,효창공원,서울특별시,용산구,30200,서울특별시 용산구 임정로 177-18,서울특별시 용산구 임정로 177-18,37.5447234,126.9437086,30,용산구청,02-2199-7755,용산경찰서,N,,13~14,2020-02-18,3020000,서울특별시 용산구
01,구립한남노인요양원,서울특별시,용산구,30200,서울특별시 용산구 독서당로 103,서울특별시 용산구 한남동 820,37.5356024462,127.0107757738,30,용산구청,02-2199-7755,용산경찰서,N,,6~7,2020-02-18,3020000,서울특별시 용산구
01,송학당경로당,서울특별시,용산구,30200,서울특별시 용산구 효창원로37라길 11,서울특별시 용산구 용문동 38-206,37.5378804609,126.9581537869,30,용산구청,02-2199-7755,용산경찰서,N,,4,2020-02-18,3020000,서울특별시 용산구
01,시립한남노인복지회관,서울특별시,용산구,30200,서울특별시 용산구 독서당로11길 16,서울특별시 용산구 한남동 108,37.5313392223,127.0064985848,30,용산구청,02-2199-7755,용산경찰서,N,,20~23,2020-02-18,3020000,서울특별시 용산구
01,황등권 노인종합복지관,전라북도,익산시,45140,전라북도 익산시 황등면 황등8길 6,전라북도 익산시 황등면 황등리 917-3,36.0047467422,126.9439148,40,전라북도 익산시,063-859-5694,익산경찰서,Y,1,,2020-03-04,4680000,전라북도 익산시
01,남부권 노인종합복지간,전라북도,익산시,45140,전라북도 익산시 목천로 328,전라북도 익산시 인화동2가 227,35.9268778636,126.9569004357,40,전라북도 익산시,063-859-5694,익산경찰서,Y,1,,2020-03-04,4680000,전라북도 익산시
01,모현동 노인종합복지관,전라북도,익산시,45140,전라북도 익산시 동서로 103,전라북도 익산시 모현동2가 64-5,35.9569279427,126.9456794859,40,전라북도 익산시,063-859-5694,익산경찰서,Y,1,,2020-03-04,4680000,전라북도 익산시
1,목리 옥토골 노인정,경기도,광주시,41610,경기도 광주시 광남안로129번길 5,경기도 광주시 목동 17-4,37.384645,127.215221,30,경기도 광주시청,031-760-4497,광주경찰서,N,,10,2019-10-15,5540000,경기도 광주시
1,광주시노인복지관 오포센터,경기도,광주시,41610,경기도 광주시 오포읍 오포로 885,경기도 광주시 오포읍 고산리 253-3,37.369255,127.231214,30,경기도 광주시청,031-760-4497,광주경찰서,N,,13,2019-10-15,5540000,경기도 광주시
1,하번천리 경로당,경기도,광주시,41610,경기도 광주시 남한산성면 은골길 1,경기도 광주시 남한산성면 하번천리 285-1,37.438087,127.279571,30,경기도 광주시청,031-760-4497,광주경찰서,Y,,7,2019-10-15,5540000,경기도 광주시
1,지월5리 경로당,경기도,광주시,41610,경기도 광주시 초월읍 현산로 298,경기도 광주시 초월읍 지월리 596,37.413679,127.2906902382,30,경기도 광주시청,031-760-4497,광주경찰서,Y,,12,2019-10-15,5540000,경기도 광주시
1,송정2통 제2노인정,경기도,광주시,41610,경기도 광주시 중앙로346번길 8,경기도 광주시 송정동 406-13,37.429708,127.260064,30,경기도 광주시청,031-760-4497,광주경찰서,Y,,10,2019-10-15,5540000,경기도 광주시
1,송정2통노인정,경기도,광주시,41610,경기도 광주시 중앙로 309,경기도 광주시 송정동 528-9,37.427208,127.257464,30,경기도 광주시청,031-760-4497,광주경찰서,N,,7,2019-10-15,5540000,경기도 광주시
1,작은안나의집,경기도,광주시,41610,경기도 광주시 도척면 도척로 882-9,경기도 광주시 도척면 유정리 579-1,37.2903212971,127.3087144880,30,경기도 광주시청,031-760-4497,광주경찰서,N,,6,2019-10-15,5540000,경기도 광주시
1,노인복지회관,경기도,광주시,41610,경기도 광주시 파발로 202,경기도 광주시 탄벌동 18-1,37.4169062857,127.249903,30,경기도 광주시청,031-760-4497,광주경찰서,Y,,20,2019-10-15,5540000,경기도 광주시
2,동현학교,경기도,광주시,41610,경기도 광주시 곤지암읍 광여로 555-55,경기도 광주시 곤지암읍 연곡리 81-3,37.3719531862,127.3951436043,30,경기도 광주시청,031-760-4497,광주경찰서,N,,4,2019-10-15,5540000,경기도 광주시
2,동심원,인천광역시,연수구,28185,인천광역시 연수구 봉재산로68,인천광역시 연수구 동춘동 325-4,37.4056893228,126.6650786,30,인천광역시 연수구,032-749-8754,연수경찰서,N,,9,2019-04-11,3520000,인천광역시 연수구
2,명심원,인천광역시,연수구,28185,인천광역시 연수구 봉재산로68,인천광역시 연수구 동춘동 325-4,37.4056893228,126.6650786,30,인천광역시 연수구,032-749-8754,연수경찰서,N,,9,2019-04-11,3520000,인천광역시 연수구
1,청학경로당,인천광역시,연수구,28185,인천광역시 연수구 계림로71-8,인천광역시 연수구 청학동 541-4,37.428608,126.6675337,30,인천광역시 연수구,032-749-8754,연수경찰서,Y,4,7,2019-04-11,3520000,인천광역시 연수구
1,외삼1통경로당,대전광역시,유성구,30200,대전광역시 유성구 외삼로 196,대전광역시 유성구 외삼동 366,36.4032252966,127.3117947812,30,대전광역시 유성구청,042-611-2588,대전유성경찰서,Y,,,2020-03-11,3670000,대전광역시 유성구
1,궁동할머니경로당,대전광역시,유성구,30200,대전광역시 유성구 농대로 15번길 25,대전광역시 유성구 궁동 428-1,36.361622,127.351664,30,대전광역시 유성구청,042-611-2588,대전유성경찰서,Y,,,2020-03-11,3670000,대전광역시 유성구
1,궁동3통경로당,대전광역시,유성구,30200,대전광역시 유성구 궁동로 60,대전광역시 유성구 궁동 72-3,36.3640014285,127.351229,30,대전광역시 유성구청,042-611-2588,대전유성경찰서,Y,,,2020-03-11,3670000,대전광역시 유성구
1,외삼2통경로당,대전광역시,유성구,30200,대전광역시 유성구 외삼로 70,대전광역시 유성구 외삼동 178-2,36.399582,127.316989,30,대전광역시 유성구청,042-611-2588,대전유성경찰서,Y,,,2020-03-11,3670000,대전광역시 유성구
1,원내2통경로당,대전광역시,유성구,30200,대전광역시 유성구 진잠로102번길 50,대전광역시 유성구 원내동 206-5,36.300696,127.3182483,30,대전광역시 유성구청,042-611-2588,대전유성경찰서,Y,,,2020-03-11,3670000,대전광역시 유성구
1,구룡2통경로당,대전광역시,유성구,30200,대전광역시 유성구 구룡달전로 266,대전광역시 유성구 구룡동 산6-5,36.450471,127.3642892,30,대전광역시 유성구청,042-611-2588,대전유성경찰서,Y,,,2020-03-11,3670000,대전광역시 유성구
1,구암2통경로당,대전광역시,유성구,30200,대전광역시 유성구 계룡로52번길 77,대전광역시 유성구 구암동 609-1,36.351624,127.335776,30,대전광역시 유성구청,042-611-2588,대전유성경찰서,Y,,,2020-03-11,3670000,대전광역시 유성구
1,봉산4통경로당,대전광역시,유성구,30200,대전광역시 유성구 봉산로36번길 7,대전광역시 유성구 봉산동 199-4,36.437029,127.3869969158,30,대전광역시 유성구청,042-611-2588,대전유성경찰서,Y,,,2020-03-11,3670000,대전광역시 유성구
1,뿌리경로당,대전광역시,유성구,30200,대전광역시 유성구 관들5길 14,대전광역시 유성구 관평동 1248,36.4228578549,127.392004,30,대전광역시 유성구청,042-611-2588,대전유성경찰서,Y,,,2020-03-11,3670000,대전광역시 유성구
1,사회복지법인 사랑의집,대전광역시,유성구,30200,대전광역시 유성구 송정길6번길 156,대전광역시 유성구 송정동 196,36.285343,127.260841,30,대전광역시 유성구청,042-611-2588,대전유성경찰서,Y,,,2020-03-11,3670000,대전광역시 유성구
1,유성구 노인복지관,대전광역시,유성구,30200,대전광역시 유성구 가정로 15,대전광역시 유성구 신성동 372,36.3845474836,127.3440235731,30,대전광역시 유성구청,042-611-2588,대전유성경찰서,Y,,,2020-03-11,3670000,대전광역시 유성구
01,동동경로당,울산광역시,중구,36900,울산광역시 중구 병영9길 5(동동),울산광역시 중구 동동 683,35.5734327702,129.3464386764,30,울산광역시 중구,052-290-3960,울산중부경찰서,N,0,4,2019-12-23,3690000,울산광역시 중구
01,손골경로당,울산광역시,중구,36900,울산광역시 중구 손골9길 46(복산동),울산광역시 중구 복산동 704-2,35.5649016093,129.3230008052,30,울산광역시 중구,052-290-3960,울산중부경찰서,N,0,8,2019-12-23,3690000,울산광역시 중구
01,행복누림실버복지센터,울산광역시,중구,36900,울산광역시 중구 성안2길 22-12(성안동),울산광역시 중구 성안동 518-11,35.5722774687,129.3169274553,30,울산광역시 중구,052-290-3960,울산중부경찰서,N,0,9,2019-12-23,3690000,울산광역시 중구
01,행운회관경로당,울산광역시,중구,36900,울산광역시 중구 다운7길 78(다운동),울산광역시 중구 다운동 820-4,35.5600348354,129.2651223094,30,울산광역시 중구,052-290-3960,울산중부경찰서,N,0,10,2019-12-23,3690000,울산광역시 중구
01,장생경로당,울산광역시,중구,36900,울산광역시 중구 우정10길 47-1(우정동),울산광역시 중구 우정동 477-3,35.5623410400,129.3131522076,30,울산광역시 중구,052-290-3960,울산중부경찰서,N,0,7,2019-12-23,3690000,울산광역시 중구
01,송학경로당,울산광역시,중구,36900,울산광역시 중구 서원1길 96(반구동),울산광역시 중구 반구동 108-19,35.5592142186,129.3388344380,30,울산광역시 중구,052-290-3960,울산중부경찰서,N,0,10,2019-12-23,3690000,울산광역시 중구
01,함월노인복지관,울산광역시,중구,36900,울산광역시 중구 종가3길 15(약사동),울산광역시 중구 유곡동 216-3,35.5612457377,129.2967386279,40,울산광역시 중구,052-290-3960,울산중부경찰서,Y,1,24,2019-12-23,3690000,울산광역시 중구
01,약사경로당,울산광역시,중구,36900,울산광역시 중구 평산4길 35(약사동),울산광역시 중구 약사동 600-6,35.5700030255,129.3374629878,30,울산광역시 중구,052-290-3960,울산중부경찰서,Y,1,15,2019-12-23,3690000,울산광역시 중구
01,중구노인복지관,울산광역시,중구,36900,울산광역시 중구 해오름2길 50(남외동),울산광역시 중구 남외동 1010-1,35.5626657351,129.3426134995,30,울산광역시 중구,052-290-3960,울산중부경찰서,Y,1,10,2019-12-23,3690000,울산광역시 중구
01,학성경로당,울산광역시,중구,36900,울산광역시 중구 구교로 92(학성동),울산광역시 중구 학성동 153-1,35.5553551175,129.3343205499,50,울산광역시 중구,052-290-3960,울산중부경찰서,Y,1,20,2019-12-23,3690000,울산광역시 중구
02,장애인복지관,경기도,하남시,41450,경기도 하남시 미사강변남로 56,경기도 하남시 풍산동 산58-5,37.559765646,127.18810489,60,하남시청,031-790-5047,하남경찰서,Y,5,35,2019-05-31,4040000,경기도 하남시
01,춘궁동노인복지회관,경기도,하남시,41450,경기도 하남시 서하남로 488,경기도 하남시 춘궁동 334-1,37.5219667,127.1940321,30,하남시청,031-790-5047,하남경찰서,Y,4,25,2019-05-31,4040000,경기도 하남시
01,카네이션요양원,경기도,군포시,41410,경기도 군포시 이당로 107,경기도 군포시 당정동 990-8,37.34478545,126.9573628,50,군포시,031-390-0295,군포경찰서,N,0,14,2019-09-17,4020000,경기도 군포시
01,군포시늘푸른노인복지관,경기도,군포시,41410,경기도 군포시 산본천로 101,경기도 군포시 산본동 1096,37.3639769331,126.9331042526,50,군포시,031-390-0295,군포경찰서,N,0,21,2019-09-17,4020000,경기도 군포시
01,광정경로당,경기도,군포시,41410,경기도 군포시 산본로 431번길 21,경기도 군포시 산본동 1112-4,37.36679734,126.9244544,30,군포시,031-390-0295,군포경찰서,Y,1,7,2019-09-17,4020000,경기도 군포시
01,군포시노인복지관,경기도,군포시,41410,경기도 군포시 고산로 223,경기도 군포시 당동 887,37.34555278,126.9474896384,30,군포시,031-390-0295,군포경찰서,N,0,12,2019-09-17,4020000,경기도 군포시
1,서구 노인복지관,부산광역시,서구,26140,부산광역시 서구 장군산로46번길 21,,35.0731266473,129.014312,30,부산광역시 서구,051-240-4374,서부경찰서,Y,,,2019-11-14,3260000,부산광역시 서구
01,오정노인복지회관,경기도,부천시,41190,경기도 부천시 성오로172,경기도 부천시 오정동 129,37.528346,126.796028,30,부천시,032-683-9290,오정경찰서,Y,,10,2019-03-08,3860000,경기도 부천시
2,남부종합사회복지관,경기도,오산시,41370,경기도 오산시 오산로132번길 28-5,경기도 오산시 원동 404-10,37.1385649549,127.072363,30,경기도 오산시,031-8036-7735,오산경찰서,N,0,6~14,2019-11-30,4000000,경기도 오산시
1,오산 노인전문병원,경기도,오산시,41370,경기도 오산시 가장산업동로 69-27,경기도 오산시 궐동 543,37.1650339438,127.0441077150,30,경기도 오산시,031-8036-7735,오산경찰서,N,0,5,2019-11-30,4000000,경기도 오산시
1,북부노인종합복지관,강원도,강릉시,42000,강원도 강릉시 연곡면 연주로 176,강원도 강릉시 연곡면 연주로 230,37.8709815989,128.8357478492,30,강원도 강릉시,033-640-5522,강릉경찰서,N,0,7,2020-01-10,4200000,강원도 강릉시
1,구노인종합복지회관,강원도,강릉시,42000,강원도 강릉시 강변로 278,강원도 강릉시 노암동 826-8,37.7493922340,128.8987821964,30,강원도 강릉시,033-640-5522,강릉경찰서,N,0,12,2020-01-10,4200000,강원도 강릉시
1,노인종합복지회관,강원도,강릉시,42000,강원도 강릉시 경강로 1956,강원도 강릉시 홍제동 96-110,37.747739,128.883994,30,강원도 강릉시,033-640-5522,강릉경찰서,N,0,8~14,2020-01-10,4200000,강원도 강릉시
01,진안군의료원,전라북도,진안군,45720,전라북도 진안군 진안읍 진무로 1145,전라북도 진안군 진안읍 군상리 90-144,35.7952483675,127.431720481,40,진안군,063-430-2358,진안경찰서,Y,2,6,2019-06-12,4730000,전라북도 진안군
01,진안복합노인복지타운,전라북도,진안군,45720,전라북도 진안군 진안읍 마이산로 76,전라북도 진안군 진안읍 군하리 353-3,35.780699,127.418529,40,진안군,063-430-2358,진안경찰서,Y,2,6,2019-06-12,4730000,전라북도 진안군
01,춘천희망복지센터,강원도,춘천시,41800,강원도 춘천시 운천길 28-29,강원도 춘천시 운교동 174-1,37.8752208,127.7323482652,30,강원도 춘천시,033-250-3483,춘천경찰서,N,,5~6,2019-06-25,4180000,강원도 춘천시
01,행복이가득한집,강원도,춘천시,41800,강원도 춘천시 서면 박사로 785,강원도 춘천시 서면 현암리 531-1,37.8887189229,127.6863551246,30,강원도 도로관리사업소,033-737-6800,춘천경찰서,N,,8~12,2019-06-25,4180000,강원도 춘천시
01,성심경로당,강원도,춘천시,41800,강원도 춘천시 삭주로70번길 37-4,강원도 춘천시 효자동 753-20,37.8803067487,127.7400168,30,강원도 춘천시,033-250-3483,춘천경찰서,N,,8,2019-06-25,4180000,강원도 춘천시
01,효나눔복지센터,강원도,춘천시,41800,강원도 춘천시 신북읍 신북로 265,강원도 춘천시 신북읍 산천리 342-5,37.9479473,127.7489512921,30,강원도 춘천시,033-250-3483,춘천경찰서,N,,10,2019-06-25,4180000,강원도 춘천시
01,춘천남부노인복지관,강원도,춘천시,41800,강원도 춘천시 방송길 86,강원도 춘천시 온의동 6-33,37.8679182669,127.718951693,30,강원도 춘천시,033-250-3483,춘천경찰서,N,,10~20,2019-06-25,4180000,강원도 춘천시
01,춘천동부노인복지관,강원도,춘천시,41800,강원도 춘천시 동면 세실로 250,강원도 춘천시 동면 만천리 893-3,37.8797045779,127.7576851914,30,강원도 춘천시,033-250-3483,춘천경찰서,N,,12~20,2019-06-25,4180000,강원도 춘천시
01,월드비젼주간보호센터,강원도,춘천시,41800,강원도 춘천시 근화길 95,강원도 춘천시 효자1동 373-90,37.8703025081,127.7227162529,30,강원도 춘천시,033-250-3483,춘천경찰서,N,,8,2019-06-25,4180000,강원도 춘천시
01,춘천시립양로원,강원도,춘천시,41800,강원도 춘천시 스무숲길 4-51,강원도 춘천시 석사동 171-8,37.8453025670,127.7476714516,30,강원도 춘천시,033-250-3483,춘천경찰서,N,,6,2019-06-25,4180000,강원도 춘천시
1,계산1통경로당,대전광역시,유성구,30204,대전광역시 유성구 원계산로 140,대전광역시 유성구 계산동 104-3,36.325871,127.304157,30,대전광역시 유성구청,042-611-2592,대전유성경찰서,N,,,2020-03-11,3670000,대전광역시 유성구
1,학하1통경로당,대전광역시,유성구,30203,대전광역시 유성구 진잠옛로 175번길 30,대전광역시 유성구 학하동 574-5,36.3355482121,127.311379,30,대전광역시 유성구청,042-611-2591,대전유성경찰서,N,,,2020-03-11,3670000,대전광역시 유성구
1,장대8통경로당,대전광역시,유성구,30202,대전광역시 유성구 현충원로 519-4,대전광역시 유성구 장대동 220-19,36.3592065893,127.3286257004,30,대전광역시 유성구청,042-611-2590,대전유성경찰서,N,,,2020-03-11,3670000,대전광역시 유성구
1,교촌3통경로당,대전광역시,유성구,30201,대전광역시 유성구 유성대로 155번길 24,대전광역시 유성구 교촌동 469-3,36.311595,127.3155537087,30,대전광역시 유성구청,042-611-2589,대전유성경찰서,N,,,2020-03-11,3670000,대전광역시 유성구
1,"원내6,7통경로당",대전광역시,유성구,30200,대전광역시 유성구 진잠로 70번길 30,대전광역시 유성구 원내동 340-7,36.2981069769,127.317832,30,대전광역시 유성구청,042-611-2588,대전유성경찰서,Y,,,2020-03-11,3670000,대전광역시 유성구
1,봉명6통할머니경로당,대전광역시,유성구,30200,대전광역시 유성구 계룡로 74번길 79-15,대전광역시 유성구 봉명동 557-5,36.351117,127.338872,30,대전광역시 유성구청,042-611-2588,대전유성경찰서,Y,,,2020-03-11,3670000,대전광역시 유성구
1,신성동경로당,대전광역시,유성구,30200,대전광역시 유성구 신성로 72번안길 42,대전광역시 유성구 신성동 129,36.3908008590,127.350498,30,대전광역시 유성구청,042-611-2588,대전유성경찰서,Y,,,2020-03-11,3670000,대전광역시 유성구
1,봉명희망마을경로당,대전광역시,유성구,30200,대전광역시 유성구 유성대로 680번길 126,대전광역시 유성구 봉명동 463-35,36.352397,127.3373491065,30,대전광역시 유성구청,042-611-2588,대전유성경찰서,Y,,,2020-03-11,3670000,대전광역시 유성구
1,복용2통경로당,대전광역시,유성구,30200,대전광역시 유성구 복용동로 87,대전광역시 유성구 복용동 121-2,36.33763991,127.3245653,30,대전광역시 유성구청,042-611-2588,대전유성경찰서,Y,,,2020-03-11,3670000,대전광역시 유성구
1,관평1통경로당,대전광역시,유성구,30200,대전광역시 유성구 관용로 44,대전광역시 유성구 관평동 542-13,36.4149259768,127.3813673,30,대전광역시 유성구청,042-611-2588,대전유성경찰서,Y,,,2020-03-11,3670000,대전광역시 유성구
1,창리경로당,대전광역시,유성구,30200,대전광역시 유성구 유성대로 694번길 23-1,대전광역시 유성구 구암동 588-10,36.355213,127.333089,30,대전광역시 유성구청,042-611-2588,대전유성경찰서,Y,,,2020-03-11,3670000,대전광역시 유성구
1,전민제1경로당,대전광역시,유성구,30200,대전광역시 유성구 전민로 18번길 22,대전광역시 유성구 전민동 369-1,36.3977201,127.403202,30,대전광역시 유성구청,042-611-2588,대전유성경찰서,Y,,,2020-03-11,3670000,대전광역시 유성구
1,보령노인종합복지관,충청남도,보령시,45100,충청남도 보령시 대천로 113(죽정동),충청남도 보령시 죽정동 703-1,36.35604971,126.6038988,30,충청남도 보령시,041-930-3981,보령경찰서,Y,1,20,2020-02-05,4510000,충청남도 보령시
1,홍현1리경로당,경상남도,남해군,48840,경상남도 남해군 남면 남면로 326,,34.7469635570,127.9073005964,30,경상남도 남해군,055-860-3315,남해군경찰서,N,,5,2019-12-03,5430000,경상남도 남해군
1,동갈화경로당,경상남도,남해군,48840,경상남도 남해군 고현면 남서대로 2984-1,,34.8943306887,127.8379578548,30,경상남도 남해군,055-860-3315,남해군경찰서,N,,6,2019-12-03,5430000,경상남도 남해군
1,중현지구 복지회관,경상남도,남해군,48840,경상남도 남해군 서면 남서대로 2647,,34.8753300986,127.8279257467,30,경상남도 남해군,055-860-3315,남해군경찰서,N,,6,2019-12-03,5430000,경상남도 남해군
1,섬호경로당,경상남도,남해군,48840,경상남도 남해군 남해읍 강진만로 160,,34.8309174976,127.923666,30,경상남도 남해군,055-860-3315,남해군경찰서,N,,5~6,2019-12-03,5430000,경상남도 남해군
1,남면 남구경로당,경상남도,남해군,48840,경상남도 남해군 남면 고실로2번길 1,,34.7850582104,127.869445,30,경상남도 남해군,055-860-3315,남해군경찰서,Y,1,6,2019-12-03,5430000,경상남도 남해군
1,삼동면 종합복지회관,경상남도,남해군,48840,경상남도 남해군 삼동면 동부대로 1830,,34.8300459552,128.0027180724,30,경상남도 남해군,055-860-3315,남해군경찰서,N,,6,2019-12-03,5430000,경상남도 남해군
1,남해군 창선면 종합복지관,경상남도,남해군,48840,경상남도 남해군 창선면 옥천로 7,,34.8548685725,128.0123878289,30,경상남도 남해군,055-860-3315,남해군경찰서,N,,5,2019-12-03,5430000,경상남도 남해군
1,남해군 노인복지관,경상남도,남해군,48840,경상남도 남해군 남해읍 망운로 44,,34.83826961,127.8896725,30,경상남도 남해군,055-860-3315,남해군경찰서,Y,2,6,2019-12-03,5430000,경상남도 남해군
01,도하1리 할머니 경로당,경기도,양주시,41630,경기도 양주시 은현면 그루고개로 490,경기도 양주시 은현면 도하리 129-3,37.8526195,127.0135352,30,경기도 양주시,031-8082-6736,양주경찰서,N,0,6,2019-09-03,5590000,경기도 양주시
01,도하1리 할아버지 경로당,경기도,양주시,41630,경기도 양주시 은현면 그루고개로 490,경기도 양주시 은현면 도하리 129-3,37.8526195,127.0135352,30,경기도 양주시,031-8082-6736,양주경찰서,N,0,6,2019-09-03,5590000,경기도 양주시
01,하패1리 경로당,경기도,양주시,41630,경기도 양주시 은현면 운하로 433번길 11,경기도 양주시 은현면 하패리 349,37.8883465215,127.0364051967,30,경기도 양주시,031-8082-6736,양주경찰서,N,0,5,2019-09-03,5590000,경기도 양주시
01,가업1리 경로당,경기도,양주시,41630,경기도 양주시 백석읍 양주산성로 760,경기도 양주시 백석읍 가업리 249,37.7871858,126.9726221063,30,경기도 양주시,031-8082-6736,양주경찰서,N,0,6,2019-09-03,5590000,경기도 양주시
01,방성1리마을회관,경기도,양주시,41630,경기도 양주시 백석읍 고릉말로 50,경기도 양주시 백석읍 방성리 238-2,37.8005094,126.9995776077,70,경기도 양주시,031-8082-6736,양주경찰서,Y,0,20,2019-09-03,5590000,경기도 양주시
01,참좋은이웃 노인요양공동생활가정,경기도,양주시,41630,경기도 양주시 백석읍 양주산성로 800번길 87-15,경기도 양주시 백석읍 가업리 520-2,37.7935466215,126.9710347,30,경기도 양주시,031-8082-6736,양주경찰서,N,0,4,2019-09-03,5590000,경기도 양주시
01,양주노블케어요양원,경기도,양주시,41630,경기도 양주시 은현면 화합로 969번길 185-105,경기도 양주시 은현면 용암리 640,37.8685797075,127.0364701,30,경기도 양주시,031-8082-6736,양주경찰서,N,0,20,2019-09-03,5590000,경기도 양주시
01,홍죽2리마을회관,경기도,양주시,41630,경기도 양주시 백석읍 월암로 82,경기도 양주시 백석읍 홍죽리 416-27,37.8016975014,126.9561093,50,경기도 양주시,031-8082-6736,양주경찰서,N,0,18,2019-09-03,5590000,경기도 양주시
01,광적노인회,경기도,양주시,41630,경기도 양주시 광적면 가래비길 114,경기도 양주시 광적면 가납리 850-4,37.8252448458,126.9842027213,30,경기도 양주시,031-8082-6736,양주경찰서,N,0,9,2019-09-03,5590000,경기도 양주시
01,선암1리마을회관,경기도,양주시,41630,경기도 양주시 은현면 은현로 46,경기도 양주시 은현면 선암리 511-1,37.8731495760,127.023684,30,경기도 양주시,031-8082-6736,양주경찰서,Y,0,10,2019-09-03,5590000,경기도 양주시
01,삼하리마을회관,경기도,양주시,41630,경기도 양주시 장흥면 일영로 375,경기도 양주시 장흥면 삼하리 107-1,37.6780890756,126.9228397,30,경기도 양주시,031-8082-6736,양주경찰서,Y,0,11,2019-09-03,5590000,경기도 양주시
01,비암2리장수마을회관,경기도,양주시,41630,경기도 양주시 광적면 부흥로 21번길 5,경기도 양주시 광적면 비암리 743-5,37.8055726745,126.9126952,30,경기도 양주시,031-8082-6736,양주경찰서,Y,0,13,2019-09-03,5590000,경기도 양주시
01,청도군노인복지관,경상북도,청도군,47820,경상북도 청도군 청도읍 한내길 68,경상북도 청도군 청도읍 고수리 3,35.6513366599,128.742920158,30,경상북도 청도군,054-370-6338,청도경찰서,Y,4,6,2019-06-13,5190000,경상북도 청도군
1,여주시 노인복지회관,경기도,여주시,41670,경기도 여주시 여흥로160번길 27,,37.2935374082,127.6401989,30,경기도 여주시,031-887-2368,여주경찰서,N,0,6,2019-10-16,5700000,경기도 여주시
02,부천혜림원,경기도,부천시,41190,경기도 부천시 경인로 304번길26,경기도 부천시 심곡본동 523-99,37.480757,126.788515,30,부천시,032-666-7990,소사경찰서,Y,,6,2019-03-08,3860000,경기도 부천시
02,부천시시각장애인협회,경기도,부천시,41190,경기도 부천시 옥산로 10번길4,경기도 부천시 중동 1118,37.494497,126.780490,30,부천시,032-667-6631,원미경찰서,Y,,8,2019-03-08,3860000,경기도 부천시
01,부천삼광전문요양원,경기도,부천시,41190,경기도 부천시 석천로 81,경기도 부천시 상동 416-3,37.494680,126.760822,30,부천시,032-327-4491,원미경찰서,Y,,15,2019-03-08,3860000,경기도 부천시
01,원미노인복지회관,경기도,부천시,41190,경기도 부천시 부천로136번길 27,경기도 부천시 원미동 71,37.496731,126.787511,30,부천시,032-667-0261,원미경찰서,Y,,6,2019-03-08,3860000,경기도 부천시
01,소사노인복지회관,경기도,부천시,41190,경기도 부천시 경인옛로 73,경기도 부천시 소사본동 64,37.480045,126.799946,30,부천시,032-347-9534,소사경찰서,Y,,12,2019-03-08,3860000,경기도 부천시
01,시립노인병원,경기도,부천시,41190,경기도 부천시 까치로26,경기도 부천시 작동 405,37.509180,126.808382,30,부천시,032-713-7300,원미경찰서,Y,,12,2019-03-08,3860000,경기도 부천시
1,진죽3리경로당,충청남도,보령시,45100,충청남도 보령시 청소면 송덕신송길 98,충청남도 보령시 청소면 진죽리 941-4,36.4516394716,126.5718898833,30,충청남도 보령시,041-930-3981,보령경찰서,Y,1,8,2020-02-05,4510000,충청남도 보령시
1,풍계리경로당,충청남도,보령시,45100,충청남도 보령시 미산면 풍년동길 6,충청남도 보령시 미산면 풍계리 383-4,36.2871782826,126.6692143076,30,충청남도 보령시,041-930-3981,보령경찰서,Y,1,8,2020-02-05,4510000,충청남도 보령시
1,소황1리경로당,충청남도,보령시,45100,충청남도 보령시 웅천읍 소황4길 37,충청남도 보령시 웅천읍 소황리 951,36.2241515167,126.5457941376,30,충청남도 보령시,041-930-3981,보령경찰서,Y,1,8,2020-02-05,4510000,충청남도 보령시
1,대창4리경로당,충청남도,보령시,45100,충청남도 보령시 웅천읍 대창증산로 68,충청남도 보령시 웅천읍 대창리 250-1,36.2202142106,126.6022491618,30,충청남도 보령시,041-930-3981,보령경찰서,Y,1,8,2020-02-05,4510000,충청남도 보령시
1,야현2리경로당,충청남도,보령시,45100,충청남도 보령시 청소면 비야들길 56,충청남도 보령시 청소면 야현리 35-8,36.440512,126.5953593592,30,충청남도 보령시,041-930-3981,보령경찰서,Y,1,8,2020-02-05,4510000,충청남도 보령시
1,하만1.2리경로당,충청남도,보령시,45100,충청남도 보령시 천북면 홍보로 504-16,충청남도 보령시 천북면 하만리 273,36.482108,126.5281652,30,충청남도 보령시,041-930-3981,보령경찰서,Y,1,8,2020-02-05,4510000,충청남도 보령시
1,수부1리경로당,충청남도,보령시,45100,충청남도 보령시 웅천읍 만수로 454-7,충청남도 보령시 웅천읍 수부리 878-2,36.2699125866,126.6255549325,30,충청남도 보령시,041-930-3981,보령경찰서,Y,1,8,2020-02-05,4510000,충청남도 보령시
1,의식경로당,충청남도,보령시,45100,충청남도 보령시 청소면 광천로 77,충청남도 보령시 청소면 죽림리 415-91,36.48300167,126.6147789,30,충청남도 보령시,041-930-3981,보령경찰서,Y,1,8,2020-02-05,4510000,충청남도 보령시
1,대천13통경로당,충청남도,보령시,45100,충청남도 보령시 구시4길 21-4(대천동),충청남도 보령시 대천동 300-43,36.3464242,126.5934313,30,충청남도 보령시,041-930-3981,보령경찰서,Y,1,8,2020-02-05,4510000,충청남도 보령시
1,신송1리경로당,충청남도,보령시,45100,충청남도 보령시 청소면 송덕신송길 496-4,충청남도 보령시 청소면 신송리 110,36.4590570023,126.5880518902,30,충청남도 보령시,041-930-3981,보령경찰서,Y,1,8,2020-02-05,4510000,충청남도 보령시
1,성연1리경로당,충청남도,보령시,45100,충청남도 보령시 청소면 넙티로 464,충청남도 보령시 청소면 성연리 335,36.4489150600,126.6350458,30,충청남도 보령시,041-930-3981,보령경찰서,Y,1,8,2020-02-05,4510000,충청남도 보령시
1,용수리경로당,충청남도,보령시,45100,충청남도 보령시 미산면 판미로 1262-4,충청남도 보령시 미산면 용수리 1-2,36.27221446,126.6809676,30,충청남도 보령시,041-930-3981,보령경찰서,Y,1,8,2020-02-05,4510000,충청남도 보령시
1,삼계리노인회관,충청남도,보령시,45100,충청남도 보령시 미산면 소삼계길 5,충청남도 보령시 미산면 삼계리 254-1,36.2040256935,126.6739223,30,충청남도 보령시,041-930-3981,보령경찰서,Y,1,8,2020-02-05,4510000,충청남도 보령시
1,장현1리경로당,충청남도,보령시,45100,충청남도 보령시 청라면 오서산길 83-6,충청남도 보령시 청라면 장현리 850-1,36.4229006,126.6659720196,30,충청남도 보령시,041-930-3981,보령경찰서,Y,1,8,2020-02-05,4510000,충청남도 보령시
1,황룡1리경로당,충청남도,보령시,45100,충청남도 보령시 청라면돌모루길 18-7,충청남도 보령시 청라면 황룡리 1235,36.4240916,126.6468351,30,충청남도 보령시,041-930-3981,보령경찰서,Y,1,8,2020-02-05,4510000,충청남도 보령시
1,성주4리경로당,충청남도,보령시,45100,충청남도 보령시 성주면 청성로 406,충청남도 보령시 성주면 성주리 265-358,36.34859578,126.6577611,30,충청남도 보령시,041-930-3981,보령경찰서,Y,1,8,2020-02-05,4510000,충청남도 보령시
1,오포2리경로당,충청남도,보령시,45100,충청남도 보령시 오천면 오천중앙로 525,충청남도 보령시 오천면 오포리 645-1,36.4061184224,126.5220808,30,충청남도 보령시,041-930-3981,보령경찰서,Y,1,8,2020-02-05,4510000,충청남도 보령시
1,하만3리경로당,충청남도,보령시,45100,충청남도 보령시 천북면 홍보로 312-1,충청남도 보령시 천북면 하만리 710,36.4653787910,126.5248376,30,충청남도 보령시,041-930-3981,보령경찰서,Y,1,8,2020-02-05,4510000,충청남도 보령시
1,보령요양원,충청남도,보령시,45100,충청남도 보령시 남포면 보령남로 211-1,충청남도 보령시 남포면 창동리 560,36.3265400239,126.6034201099,30,충청남도 보령시,041-930-3981,보령경찰서,Y,1,20,2020-02-05,4510000,충청남도 보령시
1,소송리경로당,충청남도,보령시,45100,충청남도 보령시 남포면 효방길 1,충청남도 보령시 남포면 소송리 197-1,36.3041411,126.584832,30,충청남도 보령시,041-930-3981,보령경찰서,Y,1,8,2020-02-05,4510000,충청남도 보령시
1,정전1리노인회관,충청남도,보령시,45100,충청남도 보령시 청소면 넙티로 166,충청남도 보령시 청소면 정전리 325-2,36.4423277642,126.6072663193,30,충청남도 보령시,041-930-3981,보령경찰서,Y,1,8,2020-02-05,4510000,충청남도 보령시
1,동부경로당,충청남도,보령시,45100,충청남도 보령시 남포면창동3길 42,충청남도 보령시 남포면 창동리 641-9,36.3172252424,126.6077922,30,충청남도 보령시,041-930-3981,보령경찰서,Y,1,8,2020-02-05,4510000,충청남도 보령시
1,신산리경로당,충청남도,보령시,45100,충청남도 보령시 청라면 죽성로 1083,충청남도 보령시 청라면 신산리 268,36.4271115,126.6843274,30,충청남도 보령시,041-930-3981,보령경찰서,Y,1,8,2020-02-05,4510000,충청남도 보령시
1,봉덕1리경로당,충청남도,보령시,45100,충청남도 보령시 남포면 고루머리길 39-30,충청남도 보령시 남포면 봉덕리 474-3,36.326217,126.5943470010,30,충청남도 보령시,041-930-3981,보령경찰서,Y,1,8,2020-02-05,4510000,충청남도 보령시
1,내평리경로당,충청남도,보령시,45100,충청남도 보령시 미산면 내평봉성길 16,충청남도 보령시 미산면 내평리 287,36.2099606,126.6772486,30,충청남도 보령시,041-930-3981,보령경찰서,Y,1,8,2020-02-05,4510000,충청남도 보령시
1,영보2리노인회관,충청남도,보령시,45100,충청남도 보령시 오천면 오천해안로 527,충청남도 보령시 오천면 영보리 665,36.4230219,126.5029529,30,충청남도 보령시,041-930-3981,보령경찰서,Y,1,8,2020-02-05,4510000,충청남도 보령시
1,장은1리경로당,충청남도,보령시,45100,충청남도 보령시 천북면 홍보로 765-34,충청남도 보령시 천북면 장은리 375-3,36.5035332941,126.517543,30,충청남도 보령시,041-930-3981,보령경찰서,Y,1,8,2020-02-05,4510000,충청남도 보령시
1,죽청1리노인회관,충청남도,보령시,45100,충청남도 보령시 웅천읍 죽청로64,충청남도 보령시 웅천읍 죽청리211-2,36.2404033771,126.5538834613,30,충청남도 보령시,041-930-3981,보령경찰서,Y,1,8,2020-02-05,4510000,충청남도 보령시
01,탑성마을경로당,서울특별시,서초구,11650,서울특별시 서초구 탑성말1길 2,서울특별시 서초구 염곡동 209-4,37.4577052,127.056641,30,서울시 서초구,02-2155-7185,서초경찰서,Y,1,1,2019-06-03,3210000,서울특별시 서초구
01,서초구립방배2동2구립경로당,서울특별시,서초구,11650,서울특별시 서초구 방배천로16길 5,서울특별시 서초구 방배동 437-8,37.4821963,126.9830481,30,서울시 서초구,02-2155-7185,서초경찰서,Y,1,1,2019-06-04,3210000,서울특별시 서초구
01,서초성심노인복지센터,서울특별시,서초구,11650,서울특별시 서초구 반포대로22길 61,서울특별시 서초구 서초동 1558-15,37.49058098,127.0117688,30,서울시 서초구,02-2155-7185,서초경찰서,Y,1,2,2019-06-04,3210000,서울특별시 서초구
01,서초구립노인요양센터,서울특별시,서초구,11650,서울특별시 서초구 남부순환로340길 21,서울특별시 서초구 서초동 380-4,37.4817042,127.0246126,30,서울시 서초구,02-2155-7185,서초경찰서,Y,1,2,2019-06-04,3210000,서울특별시 서초구
01,양재종합사회복지관,서울특별시,서초구,11650,서울특별시 서초구 남부순환로 2610,서울특별시 서초구 양재동 11-13,37.484475,127.0361427,30,서울시 서초구,02-2155-7185,서초경찰서,Y,1,2,2019-06-04,3210000,서울특별시 서초구
01,중앙노인종합복지관,서울특별시,서초구,11650,서울특별시 서초구 서초대로54길 45,서울특별시 서초구 서초동 1666-17,37.4922544,127.0167575,30,서울시 서초구,02-2155-7185,서초경찰서,Y,1,4,2019-06-04,3210000,서울특별시 서초구
01,양재노인종합복지관,서울특별시,서초구,11650,서울특별시 서초구 강남대로30길 73-7,서울특별시 서초구 양재동 7-44,37.4829749,127.0408069,30,서울시 서초구,02-2155-7185,서초경찰서,Y,1,3,2019-06-04,3210000,서울특별시 서초구
01,방배노인종합복지관,서울특별시,서초구,11650,서울특별시 서초구 방배천로 48,서울특별시 서초구 방배동 455-11,37.4807063,126.9827766,30,서울시 서초구,02-2155-7185,방배경찰서,Y,1,1,2019-06-04,3210000,서울특별시 서초구
01,성애양로원,전라남도,함평군,46860,전라남도 함평군 함평읍 남일길,,35.061234,126.517123,30,함평군청,061-320-1963,함평경찰서,N,0,10,2019-09-19,4960000,전라남도 함평군
01,함평노인복지회관,전라남도,함평군,46860,전라남도 함평군 함평읍 중앙길,,35.0581234,126.524123,30,함평군청,061-320-1963,함평경찰서,N,0,10,2019-09-19,4960000,전라남도 함평군
2,충남정심원,충청남도,보령시,45100,충청남도 보령시 주교면 보령북로 404,충청남도 보령시 주교면 관창리 402-8,36.3752004495,126.5834753106,30,충청남도 보령시,041-930-3981,보령경찰서,Y,1,20,2020-02-05,4510000,충청남도 보령시
1,행복한집,충청남도,보령시,45100,충청남도 보령시 남포면 봉덕2길 14,충청남도 보령시 남포면 봉덕리 482-20,36.323368,126.6023005533,30,충청남도 보령시,041-930-3981,보령경찰서,Y,1,8,2020-02-05,4510000,충청남도 보령시
1,교성3리노인회관,충청남도,보령시,45100,충청남도 보령시 오천면 도미항로 392,충청남도 보령시 오천면 교성리 1209-2,36.4495078835,126.5528675774,30,충청남도 보령시,041-930-3981,보령경찰서,Y,1,8,2020-02-05,4510000,충청남도 보령시
1,대야노인회관,충청남도,보령시,45100,충청남도 보령시 남포면 농장길 122-18,충청남도 보령시 남포면 봉덕리 62-3,36.3187532601,126.5978515491,30,충청남도 보령시,041-930-3981,보령경찰서,Y,1,8,2020-02-05,4510000,충청남도 보령시
1,두룡1리노인회관,충청남도,보령시,45100,충청남도 보령시 웅천읍 충서로 1284-5,충청남도 보령시 웅천읍 두룡리 128-7,36.2602660619,126.5861115726,30,충청남도 보령시,041-930-3981,보령경찰서,Y,1,8,2020-02-05,4510000,충청남도 보령시
1,황룡1리경로당,충청남도,보령시,45100,충청남도 보령시 청라면 넙티로 926-4,충청남도 보령시 청라면 황룡리 809-1,36.4136062978,126.6490694997,30,충청남도 보령시,041-930-3981,보령경찰서,Y,1,8,2020-02-05,4510000,충청남도 보령시
1,옥계1리노인회관,충청남도,보령시,45100,충청남도 보령시 청라면 죽성로 561,충청남도 보령시 청라면 옥계리 539-5,36.4052736017,126.6350691693,30,충청남도 보령시,041-930-3981,보령경찰서,Y,1,8,2020-02-05,4510000,충청남도 보령시
1,신덕1리노인회관,충청남도,보령시,45100,충청남도 보령시 천북면 도덕재길 3,충청남도 보령시 천북면 신덕리 412-2,36.4952847096,126.5760695571,30,충청남도 보령시,041-930-3981,보령경찰서,Y,1,8,2020-02-05,4510000,충청남도 보령시
1,사호경로당,충청남도,보령시,45100,충청남도 보령시 천북면 선악골길 71,충청남도 보령시 천북면 사호리 134-2,36.479887,126.5130035855,30,충청남도 보령시,041-930-3981,보령경찰서,Y,1,8,2020-02-05,4510000,충청남도 보령시
1,신평경로당,충청남도,보령시,45100,충청남도 보령시 천변북길 135,충청남도 보령시 대천동 618-7,36.3521701409,126.601461,30,충청남도 보령시,041-930-3981,보령경찰서,Y,1,8,2020-02-05,4510000,충청남도 보령시
1,소성2리경로당,충청남도,보령시,45100,충청남도 보령시 오천면 소성안길 29,충청남도 보령시 오천면 소성리 929-2,36.4380453375,126.5204116735,30,충청남도 보령시,041-930-3981,보령경찰서,Y,1,8,2020-02-05,4510000,충청남도 보령시
1,소양1리경로당,충청남도,보령시,45100,충청남도 보령시 청라면 원모루길 401,충청남도 보령시 청라면 나원리 1120,36.3908117774,126.6831052790,30,충청남도 보령시,041-930-3981,보령경찰서,Y,1,8,2020-02-05,4510000,충청남도 보령시
1,내현2리경로당,충청남도,보령시,45100,충청남도 보령시 청라면 대청로 779,충청남도 보령시 청라면 내현리 896,36.3895656540,126.6586471816,30,충청남도 보령시,041-930-3981,보령경찰서,Y,1,8,2020-02-05,4510000,충청남도 보령시
1,증산3리경로당,충청남도,보령시,45100,충청남도 보령시 주산면 대창증산로 323,충청남도 보령시 주산면 증산리 322,36.2035199252,126.5871844402,30,충청남도 보령시,041-930-3981,보령경찰서,Y,1,8,2020-02-05,4510000,충청남도 보령시
1,소성1리경로당,충청남도,보령시,45100,충청남도 보령시 오천면 솟재길 279,충청남도 보령시 오천면 소성리 483,36.4363046514,126.524183,30,충청남도 보령시,041-930-3981,보령경찰서,Y,1,8,2020-02-05,4510000,충청남도 보령시
1,대천16통노인회관,충청남도,보령시,45100,충청남도 보령시 구시11길 78-5,충청남도 보령시 대천동 1235-9,36.3468300327,126.5882383572,30,충청남도 보령시,041-930-3981,보령경찰서,Y,1,8,2020-02-05,4510000,충청남도 보령시
1,신대4리경로당,충청남도,보령시,45100,충청남도 보령시 주교면 창머리1길 21,충청남도 보령시 주교면 신대리 1220,36.3670402971,126.5796010310,30,충청남도 보령시,041-930-3981,보령경찰서,Y,1,8,2020-02-05,4510000,충청남도 보령시
1,봉덕2리노인회관,충청남도,보령시,45100,충청남도 보령시 남포면 남포역전길 125,충청남도 보령시 남포면 봉덕리 633,36.313783,126.5947505203,30,충청남도 보령시,041-930-3981,보령경찰서,Y,1,8,2020-02-05,4510000,충청남도 보령시
1,엘림양로원,경기도,시흥시,41390,경기도 시흥시 도두머리길 2(도창동),경기도 시흥시 도창동 408-2,37.4092512048,126.8145732,30,경기도 시흥시,031-310-3462,시흥경찰서,N,0,6,2019-12-17,4010000,경기도 시흥시
1,시흥시노인종합복지관,경기도,시흥시,41390,경기도 시흥시 장현능곡로 214(능곡동),경기도 시흥시 능곡동 765,37.3686599775,126.8132989914,30,경기도 시흥시,031-310-3462,시흥경찰서,N,0,20,2019-12-17,4010000,경기도 시흥시
01,증평군 보건소,충청북도,증평군,43745,충청북도 증평군 증평읍 보건복지로 64-1,충청북도 증평군 증평읍 내성리 57-2,36.775259,127.587112,30,충청북도 증평군,043-835-3823,괴산경찰서,N,0,7.5,2019-05-30,5570000,충청북도 증평군
1,제일영도교회 노인대학,부산광역시,영도구,26200,부산광역시 영도구 영봉길 110,부산광역시 영도구 신선동1가 91,35.09097781,129.0454073,30,부산광역시 영도구,051-419-4558,영도경찰서,N,,7,2019-11-11,3280000,부산광역시 영도구
1,빛과진리 노인교실,부산광역시,영도구,26200,부산광역시 영도구 한사랑길 63,부산광역시 영도구 영선동1가 108,35.08972781,129.0440205,30,부산광역시 영도구,051-419-4558,영도경찰서,N,,7,2019-11-11,3280000,부산광역시 영도구
1,와치노인교실,부산광역시,영도구,26200,부산광역시 영도구 함지로79번길 76,부산광역시 영도구 동삼동 510-9,35.0759963962,129.0655229,30,부산광역시 영도구,051-419-4558,영도경찰서,Y,1,12,2019-11-11,3280000,부산광역시 영도구
1,파랑새노인건강센터,부산광역시,영도구,26200,부산광역시 영도구 와치로 78,부산광역시 영도구 청학동 483-1,35.08595082,129.0596029241,30,부산광역시 영도구,051-419-4558,영도경찰서,N,,6,2019-11-11,3280000,부산광역시 영도구
1,영도구 노인복회관,부산광역시,영도구,26200,부산광역시 영도구 절영로29번길 14,부산광역시 영도구 대교동2가 159-10,35.09133005,129.0400929,30,부산광역시 영도구,051-419-4558,영도경찰서,N,,4,2019-11-11,3280000,부산광역시 영도구
01,내곡리경로당,충청북도,음성군,44700,충청북도 음성군 금왕읍 금율로2,,37.00702312,127.541999228,30,충청북도 음성군,043-871-3873,음성경찰서,N,0,7,2019-05-31,4470000,충청북도 음성군
01,대사리경로당,충청북도,음성군,44700,충청북도 음성군 삼성면 금일로 1282-1,,37.04271302,127.4751488,30,충청북도 음성군,043-871-3873,음성경찰서,N,0,7,2019-05-31,4470000,충청북도 음성군
01,조촌2리경로당,충청북도,음성군,44700,충청북도 음성군 원남면 원중로 417번길 3,,36.8754717929,127.6089700504,30,충청북도 음성군,043-871-3873,음성경찰서,N,0,7,2019-05-31,4470000,충청북도 음성군
01,비산2리마을회관,충청북도,음성군,44700,충청북도 음성군 소이면 비산로33번길 9-2,,36.9408477,127.7450192,30,충청북도 음성군,043-871-3873,음성경찰서,N,0,7,2019-05-31,4470000,충청북도 음성군
01,조촌1리경로당,충청북도,음성군,44700,충청북도 음성군 원남면 원중로 296,,36.8770528,127.6207052,30,충청북도 음성군,043-871-3873,음성경찰서,N,0,7,2019-05-31,4470000,충청북도 음성군
01,주봉3리경로당,충청북도,음성군,44700,충청북도 음성군 원남면 주봉로 11,,36.8755927,127.6750696,30,충청북도 음성군,043-871-3873,음성경찰서,N,0,7,2019-05-31,4470000,충청북도 음성군
01,마송3리경로당,충청북도,음성군,44700,충청북도 음성군 원남면 원소로 20-11,,36.8799064,127.6627005,30,충청북도 음성군,043-871-3873,음성경찰서,N,0,7,2019-05-31,4470000,충청북도 음성군
01,월정리경로당,충청북도,음성군,44700,충청북도 음성군 감곡면 감노로 528,,37.0580752,127.6698878,30,충청북도 음성군,043-871-3873,음성경찰서,N,0,7,2019-05-31,4470000,충청북도 음성군
01,도신리경로당,충청북도,음성군,44700,충청북도 음성군 생극면 음성로 1404번길 14,,37.0133354,127.6013650,30,충청북도 음성군,043-871-3873,음성경찰서,N,0,7,2019-05-31,4470000,충청북도 음성군
01,초천2리경로당,충청북도,음성군,44700,충청북도 음성군 음성읍 덕생로 818번길 27,,36.91783965,127.6539736,30,충청북도 음성군,043-871-3873,음성경찰서,N,0,7,2019-05-31,4470000,충청북도 음성군
01,관성1리경로당,충청북도,음성군,44700,충청북도 음성군 생극면 일생로 355,,37.03933338,127.562843,30,충청북도 음성군,043-871-3873,음성경찰서,N,0,7,2019-05-31,4470000,충청북도 음성군
01,삼생2리경로당,충청북도,음성군,44700,충청북도 음성군 음성읍 덕생로 335,,36.9079176,127.6070504,30,충청북도 음성군,043-871-3873,음성경찰서,N,0,7,2019-05-31,4470000,충청북도 음성군
01,충도1리경로당,충청북도,음성군,44700,충청북도 음성군 소이면 충도로 603-3,,36.9194318,127.7332794,30,충청북도 음성군,043-871-3873,음성경찰서,N,0,7,2019-05-31,4470000,충청북도 음성군
01,음성군 노인복지회관,충청북도,음성군,44700,충청북도 음성군 금왕읍 백야로 14,,36.9872945173,127.596412806,30,충청북도 음성군,043-871-3873,음성경찰서,N,0,7,2019-05-31,4470000,충청북도 음성군
2,한사랑마을,대구광역시,달성군,27710,대구광역시 달성군 현풍읍 현풍서로115길 20,대구광역시 달성군 현풍읍 자모리 881,35.6961994048,128.3813516840,30,대구광역시 달성군,053-668-3812,달성경찰서,N,0,4~7,2019-09-27,3480000,대구광역시 달성군
2,덕수복지재단 미소마을,대구광역시,달성군,27710,대구광역시 달성군 다사읍 달구벌대로 126길 14-17,대구광역시 달성군 다사읍 매곡리 1226,35.8514972608,128.4496939828,30,대구광역시 달성군,053-668-3812,달성경찰서,N,0,4~8,2019-09-27,3480000,대구광역시 달성군
1,효경노인복지원,대구광역시,달성군,27710,대구광역시 달성군 현풍읍 현풍동로27길 25,대구광역시 현풍읍 부리 349-1,35.6991891195,128.4471877504,30,대구광역시 달성군,053-668-3812,달성경찰서,Y,1,6,2019-09-27,3480000,대구광역시 달성군
1,달성군노인복지관,대구광역시,달성군,27710,대구광역시 달성군 옥포읍 옥포로 13,대구광역시 달성군 옥포읍 기세리 264-1,35.7891069128,128.4716982334,30,대구광역시 달성군,053-668-3812,달성경찰서,Y,1,10,2019-09-27,3480000,대구광역시 달성군
1,소망요양원,대구광역시,달성군,27710,대구광역시 달성군 가창면 가창로 1025,대구광역시 달성군 가창면 용계리 514-2,35.7965325889,128.6253174231,40,대구광역시 달성군,053-668-3812,달성경찰서,N,0,30,2019-09-27,3480000,대구광역시 달성군
1,대구가톨릭치매센타,대구광역시,달성군,27710,대구광역시 달성군 논공읍 논공로 210,대구광역시 달성군 논공읍 남리 717-2,35.7210883179,128.4537325318,50,대구광역시 달성군,053-668-3812,달성경찰서,Y,1,24,2019-09-27,3480000,대구광역시 달성군
1,천근경로당,대전광역시,중구,30140,대전광역시 중구 천근로46번길 28,대전광역시 중구 문화동 485-7,36.3083023654,127.4045299,30,대전 중구청,042-606-6864,대전광역시 중부경찰서,Y,1,8,2020-03-09,3650000,대전광역시 중구
1,대사공원경로당,대전광역시,중구,30140,대전광역시 중구 보문산공원로497번길 14,대전광역시 중구 대사동 200-16,36.3128382,127.4211678,30,대전 중구청,042-606-6864,대전광역시 중부경찰서,Y,1,20,2020-03-09,3650000,대전광역시 중구
1,옥계경로당,대전광역시,중구,30140,대전광역시 중구 모암로7번길 170,대전광역시 중구 옥계동 154-5,36.2972509,127.4548833,30,대전 중구청,042-606-6864,대전광역시 중부경찰서,N,,8,2020-03-09,3650000,대전광역시 중구
1,태평1경로당,대전광역시,중구,30140,대전광역시 중구 유천로132번길 64,대전광역시 중구 태평동 266-3,36.3249041,127.3988703,30,대전 중구청,042-606-6864,대전광역시 중부경찰서,Y,1,10,2020-03-09,3650000,대전광역시 중구
1,은혜양로원,대전광역시,중구,30140,대전광역시 중구 단재로 471,대전광역시 중구 어남동 85,36.213345,127.4138182,30,대전 중구청,042-606-6864,대전광역시 중부경찰서,N,,15,2020-03-09,3650000,대전광역시 중구
1,원대경로당,대전광역시,중구,30140,대전광역시 중구 보문산로122번안길 44,대전광역시 중구 산성동 299-28,36.304774,127.3914287,30,대전 중구청,042-606-6864,대전광역시 중부경찰서,Y,2,6,2020-03-09,3650000,대전광역시 중구
1,남부경로당,대전광역시,중구,30140,대전광역시 중구 용두로38번길 18,대전광역시 중구 용두동 93-10,36.3277131197,127.4089521,30,대전 중구청,042-606-6864,대전광역시 중부경찰서,N,,8,2020-03-09,3650000,대전광역시 중구
1,문석경로당,대전광역시,중구,30140,대전광역시 중구 보문로19번길 42,대전광역시 중구 문창동 385-4,36.3127124,127.4393959,30,대전 중구청,042-606-6864,대전광역시 중부경찰서,N,,6,2020-03-09,3650000,대전광역시 중구
1,석교경로당,대전광역시,중구,30140,대전광역시 중구 돌다리로7번길 52,대전광역시 중구 석교동 98-3,36.3074662,127.4445946,30,대전 중구청,042-606-6864,대전광역시 중부경찰서,Y,1,8,2020-03-09,3650000,대전광역시 중구
1,푸른경로당,대전광역시,중구,30140,대전광역시 중구 동서대로1440번길 34,대전광역시 중구 선화동 162-1,36.3349335,127.4167671,30,대전 중구청,042-606-6864,대전광역시 중부경찰서,Y,1,8,2020-03-09,3650000,대전광역시 중구
1,방축골경로당,대전광역시,중구,30140,대전광역시 중구 목동로8번길 54-1,대전광역시 중구 목동 5-17,36.3338292,127.4119199,30,대전 중구청,042-606-6864,대전광역시 중부경찰서,N,,10,2020-03-09,3650000,대전광역시 중구
1,효문화관리원,대전광역시,중구,30140,대전광역시 중구 뿌리공원로 47,대전광역시 중구 안영동 71-2,36.2859869,127.3836984487,40,대전 중구청,042-606-6864,대전광역시 중부경찰서,N,,16,2020-03-09,3650000,대전광역시 중구
1,중촌사회복지관,대전광역시,중구,30140,대전광역시 중구 대전천서로 695,대전광역시 중구 중촌동 128-1,36.3448659197,127.410512,40,대전 중구청,042-606-6864,대전광역시 중부경찰서,N,,24,2020-03-09,3650000,대전광역시 중구
1,시 노인복지관,대전광역시,중구,30140,대전광역시 중구 테미로 26,대전광역시 중구 대흥동 311-1,36.3207363598,127.4208495038,30,대전 중구청,042-606-6864,대전광역시 중부경찰서,N,,15,2020-03-09,3650000,대전광역시 중구
2,장애인종합복지관,전라남도,광양시,46230,전라남도 광양시 광양읍 대림오성로 117,,34.9651890852,127.5743592,30,전라남도 광양시,061-797-2297,광양경찰서,N,0,7~11,2019-06-13,4840000,전라남도 광양시
1,노인전문요양병원,전라남도,광양시,46230,전라남도 광양시 옥곡면 대치로 326-13,,35.0046025272,127.6643810225,30,전라남도 광양시,061-797-2297,광양경찰서,N,0,7~11,2019-06-13,4840000,전라남도 광양시
1,광양칠성노인요양원,전라남도,광양시,46230,전라남도 광양시 광양읍 서북4길 31,,34.9731434336,127.5772191604,30,전라남도 광양시,061-797-2297,광양경찰서,N,0,7~11,2019-06-13,4840000,전라남도 광양시
1,중마복지회관,전라남도,광양시,46230,전라남도 광양시 중동로 50,,34.940964,127.694062,30,전라남도 광양시,061-797-2297,광양경찰서,N,0,7~11,2019-06-13,4840000,전라남도 광양시
1,광양노인복지회관,전라남도,광양시,46230,전라남도 광양시 광양읍 백운로 8-3,,34.970546,127.5910726797,30,전라남도 광양시,061-797-2297,광양경찰서,N,0,7~11,2019-06-13,4840000,전라남도 광양시
1,논곡동경로당,경기도,시흥시,41390,경기도 시흥시 논곡동 2421번길 7,경기동 시흥시 논곡동 175-21,37.393773,126.8541689,30,경기도 시흥시,031-310-3462,시흥경찰서,N,0,10,2019-12-17,4010000,경기도 시흥시
1,포동1통 경로당,경기도,시흥시,41390,경기도 시흥시 새우개2길 36(포동),경기도 시흥시 포동 20-80,37.4030066,126.7733038804,30,경기도 시흥시,031-310-3462,시흥경찰서,N,0,6,2019-12-17,4010000,경기도 시흥시
1,글라라의집,경기도,시흥시,41390,경기도 시흥시 동서로1051번안길 14(조남동),경기도 시흥시 조남동 174-27,37.3832705140,126.8569062775,30,경기도 시흥시,031-310-3462,시흥경찰서,N,0,6,2019-12-17,4010000,경기도 시흥시
1,대야12통 경로당,경기도,시흥시,41390,경기도 시흥시 복지로93번길 11(대야동),경기도 시흥시 대야동 444-13,37.44854854,126.7906163,30,경기도 시흥시,031-310-3462,시흥경찰서,N,0,6,2019-12-17,4010000,경기도 시흥시
1,하상1통 경로당,경기도,시흥시,41390,경기도 시흥시 하상로 14-9(하상동),경기도 시흥시 하상동 372,37.3918352208,126.8138873,30,경기도 시흥시,031-310-3462,시흥경찰서,N,0,6,2019-12-17,4010000,경기도 시흥시
1,오이도 경로당,경기도,시흥시,41390,경기도 시흥시 오이도1길 30(정왕동),경기도 시흥시 정왕동 2040-1,37.3418644685,126.690171,30,경기도 시흥시,031-310-3462,시흥경찰서,N,0,6,2019-12-17,4010000,경기도 시흥시
1,과림3통경로당,경기도,시흥시,41390,경기도 시흥시 금오로327번길 20(과림동),경기도 시흥시 과림동 635-1,37.4315183514,126.834832,30,경기도 시흥시,031-310-3462,시흥경찰서,N,0,4,2019-12-17,4010000,경기도 시흥시
1,베다니마을노인전문요양원,경기도,시흥시,41390,경기도 시흥시 수인로3465번길 21(신천동),경기도 시흥시 신천동 586-40,37.4414490231,126.7746385,30,경기도 시흥시,031-310-3462,시흥경찰서,N,0,4,2019-12-17,4010000,경기도 시흥시
1,도창2통 경로당,경기도,시흥시,41390,경기도 시흥시 매화로116번길 9(도창동),경기도 시흥시 도창동 343-1,37.4086273761,126.8143610009,30,경기도 시흥시,031-310-3462,시흥경찰서,N,0,6,2019-12-17,4010000,경기도 시흥시
01,참사랑노인건강센터,부산광역시,강서구,26440,부산광역시 강서구 상덕로119번길28-11,부산광역시 강서구 강동동 2290,35.192810,128.917337,50,부산 강서구,051-970-4556,부산 강서경찰서,Y,2,4 ~ 20,2019-05-03,3360000,부산광역시 강서구
01,낙동종합사회복지관,부산광역시,강서구,26440,부산광역시 강서구 순아강변길 5(명지동),부산광역시 강서구 명지동 627-28,35.119798,128.902820449,70,부산 강서구,051-970-4556,부산 강서경찰서,N,0,30,2019-05-03,3360000,부산광역시 강서구
01,강서노인종합복지관,부산광역시,강서구,26440,부산광역시 강서구 체육공원로 39,부산광역시 강서구 대저1동 2812,35.207387,128.973402,60,부산 강서구,051-970-4556,부산 강서경찰서,N,0,30,2019-05-03,3360000,부산광역시 강서구
2,수연재활원,울산광역시,울주군,31710,울산광역시 울주군 웅촌면 대복동천로 206-23,,35.468869,129.2377479976,30,울산광역시 울주군,052-204-2557,울주경찰서,N,,,2019-12-30,3730000,울산광역시 울주군
1,반용경로당,울산광역시,울주군,31710,울산광역시 울주군 범서읍 척과로 170,,35.621207,129.268858,30,울산광역시 울주군,052-204-2556,울주경찰서,N,,,2019-12-30,3730000,울산광역시 울주군
1,송정경로당,울산광역시,울주군,31710,울산광역시 울주군 두서면 구량차리로 44,,35.6180102280,129.1443972980,30,울산광역시 울주군,052-204-2555,울주경찰서,N,,,2019-12-30,3730000,울산광역시 울주군
1,다개경로당,울산광역시,울주군,31710,울산광역시 울주군 언양읍 찻골로 3,,35.613384,129.1227253185,30,울산광역시 울주군,052-204-2554,울주경찰서,N,,,2019-12-30,3730000,울산광역시 울주군
1,상북분회경로당,울산광역시,울주군,31710,울산광역시 울주군 상북면 상북로 296,,35.5912785212,129.0895307891,30,울산광역시 울주군,052-204-2553,울주경찰서,N,,,2019-12-30,3730000,울산광역시 울주군
1,거리경로당,울산광역시,울주군,31710,울산광역시 울주군 상북면 거리로 116,,35.590173,129.076475,30,울산광역시 울주군,052-204-2552,울주경찰서,N,,,2019-12-30,3730000,울산광역시 울주군
1,대복경로당,울산광역시,울주군,31710,울산광역시 울주군 웅촌면 삼동로 1633,,35.4882907438,129.213737,30,울산광역시 울주군,052-204-2551,울주경찰서,N,,,2019-12-30,3730000,울산광역시 울주군
1,태화2리경로당,울산광역시,울주군,31710,울산광역시 울주군 온양읍 태화8길 32,,35.414024,129.279747,30,울산광역시 울주군,052-204-2550,울주경찰서,N,,,2019-12-30,3730000,울산광역시 울주군
1,덕정경로당,울산광역시,울주군,31710,울산광역시 울주군 청량읍 덕정4길 3,,35.487929,129.296621,30,울산광역시 울주군,052-204-2549,울주경찰서,N,,,2019-12-30,3730000,울산광역시 울주군
1,서부노인복지관,울산광역시,울주군,31710,울산광역시 울주군 삼남면 서향교2길 50,,35.556526,129.113154,30,울산광역시 울주군,052-204-2548,울주경찰서,N,,,2019-12-30,3730000,울산광역시 울주군
1,중방경로당,울산광역시,울주군,31710,울산광역시 울주군 삼남면 방기6길 18,,35.508664,129.0834903305,30,울산광역시 울주군,052-204-2547,울주경찰서,N,,,2019-12-30,3730000,울산광역시 울주군
1,영신노인복지센터,울산광역시,울주군,31710,울산광역시 울주군 범서읍 관문로 324-2,,35.6122355447,129.2803954675,30,울산광역시 울주군,052-204-2546,울주경찰서,N,,,2019-12-30,3730000,울산광역시 울주군
1,청량분회경로당 및 신덕하1구경로당,울산광역시,울주군,31710,울산광역시 울주군 청량읍 덕하로 253,,35.493437,129.305497,30,울산광역시 울주군,052-204-2545,울주경찰서,N,,,2019-12-30,3730000,울산광역시 울주군
1,동문경로당,울산광역시,울주군,31710,울산광역시 울주군 웅촌면 웅촌로 378,,35.4645636840,129.209905,30,울산광역시 울주군,052-204-2544,울주경찰서,N,,,2019-12-30,3730000,울산광역시 울주군
1,남부노인복지회관,울산광역시,울주군,31710,울산광역시 울주군 온양읍 온양로 256-6,,35.4071176092,129.2979468047,30,울산광역시 울주군,052-204-2543,울주경찰서,N,,,2019-12-30,3730000,울산광역시 울주군
1,늘사랑요양원,대전광역시,중구,30140,대전광역시 중구 성산로28,대전광역시 중구 안영동 648-9,36.2920242603,127.378942,30,대전 중구청,042-606-6864,대전광역시 중부경찰서,N,,20,2020-03-09,3650000,대전광역시 중구
1,범골요양원,대전광역시,중구,30140,대전광역시 중구 범골로 99,대전광역시 중구 호동 147-3,36.3000633383,127.440844,30,대전 중구청,042-606-6864,대전광역시 중부경찰서,N,,4,2020-03-09,3650000,대전광역시 중구
1,현암경로당,대전광역시,중구,30140,대전광역시 중구 대둔산로31번길 61,대전광역시 중구 안영동 167,36.273695,127.378689,30,대전 중구청,042-606-6864,대전광역시 중부경찰서,N,,4,2020-03-09,3650000,대전광역시 중구
1,호산나공동체,대전광역시,중구,30140,대전광역시 중구 계룡로815번길 6,대전광역시 중구 용두동 35-1,36.3273479,127.4072784,30,대전 중구청,042-606-6864,대전광역시 중부경찰서,N,,8,2020-03-09,3650000,대전광역시 중구
1,선화3경로당,대전광역시,중구,30140,대전광역시 중구 선화로97번길 29-3,대전광역시 중구 선화동 190-32,36.3304528,127.417187,30,대전 중구청,042-606-6864,대전광역시 중부경찰서,N,,8,2020-03-09,3650000,대전광역시 중구
1,칠석경로당,대전광역시,중구,30140,대전광역시 중구 부용로41번길 37,대전광역시 중구 부사동 422-36,36.3103112,127.4328298,30,대전 중구청,042-606-6864,대전광역시 중부경찰서,N,,6,2020-03-09,3650000,대전광역시 중구
1,청란경로당,대전광역시,중구,30140,대전광역시 중구 부용로34번길 19,대전광역시 중구 부사동 582,36.3101136765,127.4298706,30,대전 중구청,042-606-6864,대전광역시 중부경찰서,N,,6,2020-03-09,3650000,대전광역시 중구
1,보문경로당,대전광역시,중구,30140,대전광역시 중구 보문로89번길 36,대전광역시 중구 부사동 233,36.3120181,127.4303564,30,대전 중구청,042-606-6864,대전광역시 중부경찰서,N,,6,2020-03-09,3650000,대전광역시 중구
1,부사경로당,대전광역시,중구,30140,대전광역시 중구 사득로75번길 58,대전광역시 중구 부사동 155-15,36.3117562,127.4355732,30,대전 중구청,042-606-6864,대전광역시 중부경찰서,N,,8,2020-03-09,3650000,대전광역시 중구
1,송리경로당,대전광역시,중구,30140,대전광역시 중구 보문산로171번길 33,대전광역시 중구 문화동 569-4,36.3072392,127.398968,30,대전 중구청,042-606-6864,대전광역시 중부경찰서,Y,1,8,2020-03-09,3650000,대전광역시 중구
1,삼화경로당,대전광역시,중구,30140,대전광역시 중구 계백로1660번길 26,대전광역시 중구 문화동 319-23,36.3189074890,127.4045216,30,대전 중구청,042-606-6864,대전광역시 중부경찰서,N,,8,2020-03-09,3650000,대전광역시 중구
1,미포새마을경로당,울산광역시,동구,31170,울산광역시 동구 미포1길 46-33,울산광역시 동구 동부동 194-42,35.541389,129.429194,30,울산광역시 동구청,052-209-3724,동부경찰서,N,0,15,2020-01-01,3710000,울산광역시 동구
1,다비다노인요양원,울산광역시,동구,31170,울산광역시 동구 봉수로 28,울산광역시 동구 방어동 914-2,35.4900020677,129.417243,30,울산광역시 동구청,052-209-3724,동부경찰서,N,0,15,2020-01-01,3710000,울산광역시 동구
1,복지경로당,울산광역시,동구,31170,울산광역시 동구 봉수로 24,울산광역시 동구 방어동 914-3,35.489834,129.417088,30,울산광역시 동구청,052-209-3724,동부경찰서,N,0,15,2020-01-01,3710000,울산광역시 동구
01,평화양로원,부산광역시,사하구,26380,부산광역시 사하구 승학로233번길 49,,35.10423738,128.9896474,30,부산광역시 사하구,051-220-4552,부산사하경찰서,N,0,8,2019-05-31,3340000,부산광역시 사하구
01,내원노인복지센터,부산광역시,사하구,26380,부산광역시 사하구 다대낙조2길 15,,35.05102069,128.963606,30,부산광역시 사하구,051-220-4552,부산사하경찰서,N,0,11,2019-05-31,3340000,부산광역시 사하구
01,사하구 종합사회복지관,부산광역시,사하구,26380,부산광역시 사하구 감내1로 127,,35.09369284,129.0079888,30,부산광역시 사하구,051-220-4552,부산사하경찰서,N,0,6,2019-05-31,3340000,부산광역시 사하구
01,사하사랑채노인복지관,부산광역시,사하구,26380,부산광역시 사하구 사리로 35,,35.10300921,128.9987036,30,부산광역시 사하구,051-220-4552,부산사하경찰서,N,0,11,2019-05-31,3340000,부산광역시 사하구
01,사하구노인복지회관,부산광역시,사하구,26380,부산광역시 사하구 하신번영로 155,,35.0964029031,128.9600056,30,부산광역시 사하구,051-220-4552,부산사하경찰서,N,0,14,2019-05-31,3340000,부산광역시 사하구
01,구평종합사회복지관,부산광역시,사하구,26380,부산광역시 사하구 을숙도대로 744,,35.08563822,128.9867137,30,부산광역시 사하구,051-220-4552,부산사하경찰서,N,0,24,2019-05-31,3340000,부산광역시 사하구
01,우천2리 용연 경로당,경상북도,영천시,47230,,경상북도 영천시 청통면 우천리 105-1,35.9976736,128.879896,30,영천시청,054-330-6335,영천경찰서,N,,7,2019-10-30,5100000,경상북도 영천시
01,황강리 경로당,경상북도,영천시,47230,경상북도 영천시 임고면 황강길 3,경상북도 영천시 임고면 황강리 290,36.0256986460,128.9932975603,30,영천시청,054-330-6335,영천경찰서,N,,7,2019-10-30,5100000,경상북도 영천시
